{
  "罗克福德景点": [
    {
      "Name": "Burpee自然历史博物馆",
      "Latitude": 42.2773242,
      "Longitude": -89.08814249999999,
      "Address": "伊利诺斯州罗克福德市北大街737号，邮编61103，美国",
      "Phone": "(815) 965-3433",
      "Website": "http://www.burpee.org/",
      "City": "罗克福德"
    },
    {
      "Name": "中途乡村博物馆",
      "Latitude": 42.2804989,
      "Longitude": -88.98463989999999,
      "Address": "美国伊利诺斯州罗克福德吉尔福德路6799号，邮编61107，美国",
      "Phone": "(815) 397-9112",
      "Website": "https://www.midwayvillage.com/",
      "City": "罗克福德"
    },
    {
      "Name": "发现中心博物馆",
      "Latitude": 42.2771046,
      "Longitude": -89.0894304,
      "Address": "伊利诺斯州罗克福德市北大街711号，邮编61103，美国",
      "Phone": "(815) 963-6769",
      "Website": "http://www.discoverycentermuseum.org/",
      "City": "罗克福德"
    },
    {
      "Name": "丁克瑞士小屋博物馆和花园",
      "Latitude": 42.26411,
      "Longitude": -89.102796,
      "Address": "美国伊利诺伊州罗克福德市肯特街411号，邮编61102，美国",
      "Phone": "(815) 964-2424",
      "Website": "http://www.tinkercottage.com/",
      "City": "罗克福德"
    },
    {
      "Name": "安德森日本花园",
      "Latitude": 42.2900539,
      "Longitude": -89.05779539999999,
      "Address": "伊利诺伊州罗克福德市春溪路318号，邮编61107，美国",
      "Phone": "(815) 229-9390",
      "Website": "http://andersongardens.org/",
      "City": "罗克福德"
    },
    {
      "Name": "尼古拉斯音乐学院和花园",
      "Latitude": 42.28229330000001,
      "Longitude": -89.0707044,
      "Address": "1354 n第二街，罗克福德，伊利诺伊州61107，美国",
      "Phone": "(815) 987-8858",
      "Website": "http://www.nicholasconservatory.com/",
      "City": "罗克福德"
    },
    {
      "Name": "Erlander Home Museum",
      "Latitude": 42.26409779999999,
      "Longitude": -89.08869279999999,
      "Address": "伊利诺伊州罗克福德市南三街404号，邮编61104，美国",
      "Phone": "(815) 963-5559",
      "Website": "http://www.swedishhistorical.org/",
      "City": "罗克福德"
    },
    {
      "Name": "民族遗产博物馆",
      "Latitude": 42.2611002,
      "Longitude": -89.100915,
      "Address": "伊利诺伊州罗克福德市南大街1129号，邮编61101，美国",
      "Phone": "(815) 962-7402",
      "Website": "https://www.ethnicheritagemuseum.org/",
      "City": "罗克福德"
    },
    {
      "Name": "咨询公园",
      "Latitude": 42.2827292,
      "Longitude": -89.0641156,
      "Address": "美国伊利诺斯州罗克福德市第二街1401号，邮编61107，美国",
      "Phone": "(815) 987-8858",
      "Website": "http://rockfordparkdistrict.org/ncg",
      "City": "罗克福德"
    },
    {
      "Name": "Klehm植物园和植物园",
      "Latitude": 42.2444523,
      "Longitude": -89.11254020000001,
      "Address": "伊利诺伊州罗克福德市南大街2715号，邮编61102，美国",
      "Phone": "(815) 965-8146",
      "Website": "http://www.klehm.org/",
      "City": "罗克福德"
    },
    {
      "Name": "创始人登陆的戴维斯公园",
      "Latitude": 42.26825019999999,
      "Longitude": -89.0953792,
      "Address": "伊利诺伊州罗克福德市怀曼街320号，邮编61101，美国",
      "Phone": "(815) 968-5600",
      "Website": "https://www.gorockford.com/listings/davis-park-at-founders-landing/275/",
      "City": "罗克福德"
    },
    {
      "Name": "弗兰克·劳埃德·赖特（Frank Lloyd Wright）的劳伦（Laurent House）",
      "Latitude": 42.2998334,
      "Longitude": -89.0243617,
      "Address": "伊利诺伊州罗克福德市怀曼街320号，邮编61101，美国",
      "Phone": "(815) 877-2952",
      "Website": "http://www.laurenthouse.com/",
      "City": "罗克福德"
    },
    {
      "Name": "花园",
      "Latitude": 42.2840305,
      "Longitude": -89.0679007,
      "Address": "1354 n第二街，罗克福德，伊利诺伊州 61107，美国",
      "Phone": "(815) 987-8858",
      "Website": "https://nicholasconservatory.com/",
      "City": "罗克福德"
    },
    {
      "Name": "河滨博物馆公园",
      "Latitude": 42.2768431,
      "Longitude": -89.0888593,
      "Address": "美国伊利诺伊州罗克福德市北主街3711号街61103，美国",
      "Phone": "(815) 962-0105",
      "Website": "未知",
      "City": "罗克福德"
    },
    {
      "Name": "西尔斯公园",
      "Latitude": 42.3006848,
      "Longitude": -89.1241445,
      "Address": "美国伊利诺伊州罗克福德市萨福德路4950号，邮编61101，美国",
      "Phone": "(815) 987-8800",
      "Website": "http://rockfordparkdistrict.org/",
      "City": "罗克福德"
    },
    {
      "Name": "花园鸽子",
      "Latitude": 42.2936707,
      "Longitude": -89.0346172,
      "Address": "布鲁克维尤路3622号，罗克福德，伊利诺伊州 邮编61107，美国",
      "Phone": "(815) 399-0324",
      "Website": "http://www.lapalomagardens.com/",
      "City": "罗克福德"
    },
    {
      "Name": "罗克福德公园区",
      "Latitude": 42.268422,
      "Longitude": -89.0972335,
      "Address": "美国伊利诺伊州罗克福德市南大街401号，邮编61101，美国",
      "Phone": "(815) 987-8800",
      "Website": "https://rockfordparkdistrict.org/",
      "City": "罗克福德"
    },
    {
      "Name": "公园零件",
      "Latitude": 42.2740598,
      "Longitude": -89.0227687,
      "Address": "伊利诺斯州罗克福德市阿尔卑斯北路623号，邮编61107，美国",
      "Phone": "未知",
      "Website": "https://www.rockfordparkdistrict.org/",
      "City": "罗克福德"
    },
    {
      "Name": "黑鹰泉森林保护区",
      "Latitude": 42.2046939,
      "Longitude": -88.9916363,
      "Address": "伊利诺伊州罗克福德市马尔福德路5360号和佩里维尔路5801号，邮编61109，美国",
      "Phone": "(815) 877-6100",
      "Website": "http://winnebagoforest.org/preserves/blackhawk-springs/",
      "City": "罗克福德"
    },
    {
      "Name": "英格索尔百年纪念公园",
      "Latitude": 42.2662975,
      "Longitude": -89.09143920000001,
      "Address": "伊利诺伊州罗克福德市马尔福德路5360号和佩里维尔路5801号，邮编61109，美国",
      "Phone": "(815) 987-8800",
      "Website": "http://rockfordparkdistrict.org/",
      "City": "罗克福德"
    }
  ],
  "罗克福德的餐馆": [
    {
      "Name": "竹可可",
      "Average Cost": 72,
      "Cuisines": "茶，法国，面包店，烧烤，咖啡馆",
      "Aggregate Rating": 4.9,
      "City": "罗克福德"
    },
    {
      "Name": "飞行芒果",
      "Average Cost": 20,
      "Cuisines": "美国，烧烤，海鲜",
      "Aggregate Rating": 4.5,
      "City": "罗克福德"
    },
    {
      "Name": "高贾利海食",
      "Average Cost": 49,
      "Cuisines": "面包店，烧烤",
      "Aggregate Rating": 3.9,
      "City": "罗克福德"
    },
    {
      "Name": "神圣巴拉吉 Chaat Bhandar",
      "Average Cost": 97,
      "Cuisines": "法国，面包店，烧烤，意大利语",
      "Aggregate Rating": 3.2,
      "City": "罗克福德"
    },
    {
      "Name": "必须是阿拉比卡",
      "Average Cost": 43,
      "Cuisines": "茶，面包店，印度，快餐",
      "Aggregate Rating": 3.5,
      "City": "罗克福德"
    },
    {
      "Name": "咖啡馆咖啡日",
      "Average Cost": 28,
      "Cuisines": "中国，甜点，披萨，咖啡馆，地中海",
      "Aggregate Rating": 0,
      "City": "罗克福德"
    },
    {
      "Name": "营养冲击",
      "Average Cost": 34,
      "Cuisines": "茶，中国，咖啡馆，甜点",
      "Aggregate Rating": 4,
      "City": "罗克福德"
    },
    {
      "Name": "咖啡馆索尔",
      "Average Cost": 56,
      "Cuisines": "海鲜，披萨，咖啡馆，快餐",
      "Aggregate Rating": 4.2,
      "City": "罗克福德"
    },
    {
      "Name": "鸡蛋 -  Jaypee Vasant大陆",
      "Average Cost": 77,
      "Cuisines": "茶，地中海，海鲜",
      "Aggregate Rating": 3.6,
      "City": "罗克福德"
    },
    {
      "Name": "香气休息o棒",
      "Average Cost": 58,
      "Cuisines": "面包店，快餐，中国，美国，海鲜",
      "Aggregate Rating": 3.6,
      "City": "罗克福德"
    },
    {
      "Name": "先进烘焙坊",
      "Average Cost": 100,
      "Cuisines": "甜点，披萨，墨西哥，面包店，中国，海鲜",
      "Aggregate Rating": 2.9,
      "City": "罗克福德"
    },
    {
      "Name": "拨打蛋糕",
      "Average Cost": 29,
      "Cuisines": "咖啡馆，美国，地中海，甜点",
      "Aggregate Rating": 0,
      "City": "罗克福德"
    },
    {
      "Name": "你喜欢",
      "Average Cost": 32,
      "Cuisines": "茶，法式，甜点",
      "Aggregate Rating": 0,
      "City": "罗克福德"
    },
    {
      "Name": "地铁",
      "Average Cost": 42,
      "Cuisines": "茶，中国，比萨",
      "Aggregate Rating": 3.4,
      "City": "罗克福德"
    },
    {
      "Name": "阿格瓦尔甜心中心",
      "Average Cost": 81,
      "Cuisines": "甜点，茶，意大利，面包店，咖啡馆",
      "Aggregate Rating": 0,
      "City": "罗克福德"
    },
    {
      "Name": "阿格瓦尔糖果中心",
      "Average Cost": 73,
      "Cuisines": "快餐，中国，烧烤，意大利语",
      "Aggregate Rating": 0,
      "City": "罗克福德"
    },
    {
      "Name": "Giri Momos中心和中国快餐",
      "Average Cost": 44,
      "Cuisines": "咖啡馆，印度，海鲜",
      "Aggregate Rating": 2.4,
      "City": "罗克福德"
    },
    {
      "Name": "糖果先生 - 骄傲广场酒店",
      "Average Cost": 74,
      "Cuisines": "面包店，甜点",
      "Aggregate Rating": 0,
      "City": "罗克福德"
    },
    {
      "Name": "应该是",
      "Average Cost": 98,
      "Cuisines": "面包店，甜点，海鲜",
      "Aggregate Rating": 0,
      "City": "罗克福德"
    },
    {
      "Name": "Hangchuaa的中国美食角",
      "Average Cost": 64,
      "Cuisines": "茶，烧烤，海鲜",
      "Aggregate Rating": 3.1,
      "City": "罗克福德"
    },
    {
      "Name": "格拉帕 - 香格里拉 - 拉 - 埃罗斯酒店",
      "Average Cost": 21,
      "Cuisines": "面包店，甜点，意大利语",
      "Aggregate Rating": 3.4,
      "City": "罗克福德"
    },
    {
      "Name": "Hatti的新Bhappe",
      "Average Cost": 76,
      "Cuisines": "海鲜，墨西哥，烧烤，快餐",
      "Aggregate Rating": 0,
      "City": "罗克福德"
    },
    {
      "Name": "邓肯甜甜圈",
      "Average Cost": 24,
      "Cuisines": "咖啡馆，面包店，烧烤，海鲜",
      "Aggregate Rating": 0,
      "City": "罗克福德"
    },
    {
      "Name": "地铁",
      "Average Cost": 26,
      "Cuisines": "面包店，披萨，烧烤，甜点",
      "Aggregate Rating": 3.8,
      "City": "罗克福德"
    },
    {
      "Name": "美食棚",
      "Average Cost": 77,
      "Cuisines": "茶，披萨，印度，快餐",
      "Aggregate Rating": 3.3,
      "City": "罗克福德"
    },
    {
      "Name": "调皮的",
      "Average Cost": 64,
      "Cuisines": "美国，印度，烧烤，海鲜",
      "Aggregate Rating": 3.1,
      "City": "罗克福德"
    },
    {
      "Name": "昭披耶",
      "Average Cost": 74,
      "Cuisines": "中国，披萨，咖啡馆，甜点",
      "Aggregate Rating": 3.9,
      "City": "罗克福德"
    }
  ],
  "罗克福德的住宿": [
    {
      "NAME": "宽敞的3BDR Prime位置！",
      "price": 1030,
      "room type": "整个房屋/公寓",
      "house_rules": "禁止抽烟",
      "minimum nights": 2,
      "maximum occupancy": 9,
      "review rate number": 2,
      "city": "罗克福德"
    },
    {
      "NAME": "两卧室公寓的私人房间。",
      "price": 210,
      "room type": "私人房间",
      "house_rules": "没有游客，也没有吸烟",
      "minimum nights": 1,
      "maximum occupancy": 2,
      "review rate number": 4,
      "city": "罗克福德"
    },
    {
      "NAME": "私人房间和无与伦比的位置",
      "price": 1075,
      "room type": "私人房间",
      "house_rules": "没有宠物，没有聚会",
      "minimum nights": 2,
      "maximum occupancy": 2,
      "review rate number": 2,
      "city": "罗克福德"
    },
    {
      "NAME": "公园侧Zen Home-露台和Central公园旁边",
      "price": 250,
      "room type": "整个房屋/公寓",
      "house_rules": "没有10岁以下的孩子",
      "minimum nights": 3,
      "maximum occupancy": 3,
      "review rate number": 3,
      "city": "罗克福德"
    },
    {
      "NAME": "哈德逊河上的lux 2卧室纽约市公寓！",
      "price": 737,
      "room type": "整个房屋/公寓",
      "house_rules": "禁止抽烟",
      "minimum nights": 30,
      "maximum occupancy": 4,
      "review rate number": 5,
      "city": "罗克福德"
    },
    {
      "NAME": "福特汉姆的现代1卧室公寓",
      "price": 377,
      "room type": "整个房屋/公寓",
      "house_rules": "没有宠物",
      "minimum nights": 7,
      "maximum occupancy": 2,
      "review rate number": 5,
      "city": "罗克福德"
    },
    {
      "NAME": "卧室在卧床！",
      "price": 1107,
      "room type": "私人房间",
      "house_rules": "禁止抽烟",
      "minimum nights": 10,
      "maximum occupancy": 1,
      "review rate number": 4,
      "city": "罗克福德"
    },
    {
      "NAME": "纯豪华一bdrm +中央公园的沙发床",
      "price": 243,
      "room type": "整个房屋/公寓",
      "house_rules": "没有吸烟，没有聚会",
      "minimum nights": 2,
      "maximum occupancy": 3,
      "review rate number": 3,
      "city": "罗克福德"
    },
    {
      "NAME": "阿斯托里亚心脏中心的迷人工作室",
      "price": 519,
      "room type": "整个房屋/公寓",
      "house_rules": "没有聚会",
      "minimum nights": 4,
      "maximum occupancy": 4,
      "review rate number": 4,
      "city": "罗克福德"
    },
    {
      "NAME": "布鲁克林的心脏",
      "price": 154,
      "room type": "整个房屋/公寓",
      "house_rules": "没有10岁以下的孩子，也没有访客，也没有宠物",
      "minimum nights": 30,
      "maximum occupancy": 3,
      "review rate number": 2,
      "city": "罗克福德"
    },
    {
      "NAME": "私人Stuyvesant卧室麦迪逊1R-2",
      "price": 395,
      "room type": "私人房间",
      "house_rules": "没有聚会，没有10岁以下的孩子",
      "minimum nights": 30,
      "maximum occupancy": 2,
      "review rate number": 3,
      "city": "罗克福德"
    },
    {
      "NAME": "阳光明媚的大卧室布鲁克林社区",
      "price": 440,
      "room type": "私人房间",
      "house_rules": "没有宠物，没有吸烟",
      "minimum nights": 14,
      "maximum occupancy": 2,
      "review rate number": 3,
      "city": "罗克福德"
    },
    {
      "NAME": "中城2床联合国LOC，完整的厨房",
      "price": 245,
      "room type": "整个房屋/公寓",
      "house_rules": "没有访客",
      "minimum nights": 3,
      "maximum occupancy": 3,
      "review rate number": 4,
      "city": "罗克福德"
    }
  ],
  "2022年3月16日从圣彼得堡飞往罗克福德的航班": [
    {
      "Flight Number": "F3573659",
      "Price": 474,
      "DepTime": "15:40",
      "ArrTime": "17:04",
      "ActualElapsedTime": "2小时24分钟",
      "FlightDate": "2022-03-16",
      "OriginCityName": "圣彼得堡",
      "DestCityName": "罗克福德",
      "Distance": 1049
    }
  ],
  "从圣彼得堡自驾前往罗克福德": "没有有效的信息。",
  "从圣彼得堡自驾前往罗克福德的的士": "没有有效的信息。",
  "2022年3月18日从圣彼得堡飞往罗克福德的航班": [
    {
      "Flight Number": "F3573120",
      "Price": 346,
      "DepTime": "19:00",
      "ArrTime": "22:43",
      "ActualElapsedTime": "2小时43分钟",
      "FlightDate": "2022-03-18",
      "OriginCityName": "罗克福德",
      "DestCityName": "圣彼得堡",
      "Distance": 1049
    }
  ],
  "从圣彼得堡自驾前往罗克福德": "没有有效的信息。",
  "从圣彼得堡自驾前往罗克福德的的士": "没有有效的信息。",
  "彭萨科拉的景点": [
    {
      "Name": "历史悠久的彭萨科拉村",
      "Latitude": 30.40874519999999,
      "Longitude": -87.2130784,
      "Address": "205 E萨拉戈萨ST，彭萨科拉，佛罗里达州32502，美国",
      "Phone": "(850) 595-5993",
      "Website": "http://www.historicpensacola.org/",
      "City": "彭萨科拉"
    },
    {
      "Name": "彭萨科拉艺术博物馆",
      "Latitude": 30.4079585,
      "Longitude": -87.213443,
      "Address": "佛罗里达州彭萨科拉市杰弗逊街407号，32502；美国",
      "Phone": "(850) 432-6247",
      "Website": "http://www.pensacolamuseum.org/",
      "City": "彭萨科拉"
    },
    {
      "Name": "Palafox街彭萨科拉市区",
      "Latitude": 30.4156547,
      "Longitude": -87.2158627,
      "Address": "佛罗里达州彭萨科拉市Palafox街200号美国",
      "Phone": "未知",
      "Website": "http://visitpensacola.com/",
      "City": "彭萨科拉"
    },
    {
      "Name": "纪念纪念馆露娜广场",
      "Latitude": 30.402506,
      "Longitude": -87.2130128,
      "Address": "900与佛罗里达州彭萨科拉市帕拉福克斯街32502号 美国",
      "Phone": "(850) 436-5670",
      "Website": "https://www.cityofpensacola.com/facilities/facilities/details/plazadeluna-75",
      "City": "彭萨科拉"
    },
    {
      "Name": "涂鸦桥",
      "Latitude": 30.420402,
      "Longitude": -87.193888,
      "Address": "佛罗里达州彭萨科拉市第17大道32502号，美国",
      "Phone": "(850) 361-9306",
      "Website": "http://thegraffitibridge.com/",
      "City": "彭萨科拉"
    },
    {
      "Name": "彭萨科拉儿童博物馆",
      "Latitude": 30.408296,
      "Longitude": -87.2127429,
      "Address": "佛罗里达州彭萨科拉市萨拉戈萨街115号，32502，美国",
      "Phone": "(850) 595-1559",
      "Website": "http://www.historicpensacacola.org/plan-your-visit/museums-properties/pensacola-childrens-museum/",
      "City": "彭萨科拉"
    },
    {
      "Name": "复古",
      "Latitude": 30.4196742,
      "Longitude": -87.21960759999999,
      "Address": "佛罗里达州彭萨科拉市春街610号，邮编32501，美国",
      "Phone": "(850) 466-5220",
      "Website": "http://www.goretro.us/",
      "City": "彭萨科拉"
    },
    {
      "Name": "商业博物馆",
      "Latitude": 30.4085519,
      "Longitude": -87.21147859999999,
      "Address": "佛罗里达州彭萨科拉市萨拉戈萨街201号，邮编32502，美国",
      "Phone": "(850) 595-5985",
      "Website": "https://historicpensacacola.org/plan-your-visit/museums-properties/museum-of-commerce/",
      "City": "彭萨科拉"
    },
    {
      "Name": "Quina House博物馆",
      "Latitude": 30.41104139999999,
      "Longitude": -87.2093412,
      "Address": "佛罗里达州彭萨科拉市Alcaniz街204号，32502，美国",
      "Phone": "(850) 432-3050",
      "Website": "https://pensacolahistoricpreservationsociety.com/quinahouse",
      "City": "彭萨科拉"
    },
    {
      "Name": "湾悬崖公园",
      "Latitude": 30.45511870000001,
      "Longitude": -87.1684993,
      "Address": "3400风景高速公路，佛罗里达州彭萨科拉，FL 32503，美国",
      "Phone": "(850) 435-1603",
      "Website": "http://cityofpensacola.com/facilities/facilities/details/bay-bay-bluffs-preserve-18",
      "City": "彭萨科拉"
    },
    {
      "Name": "彭萨科拉食堂",
      "Latitude": 30.418049,
      "Longitude": -87.210194,
      "Address": "佛罗里达州彭萨科拉市怀特街418号，邮编32502，美国",
      "Phone": "(877) 937-6377",
      "Website": "http://www.pensacolamesshall.org/",
      "City": "彭萨科拉"
    },
    {
      "Name": "彭萨科拉湾城渡轮",
      "Latitude": 30.405077,
      "Longitude": -87.2121877,
      "Address": "佛罗里达州彭萨科拉市表扬街750号，邮编32502，美国",
      "Phone": "(850) 466-3379",
      "Website": "https://www.pensacolabaycityferry.com/",
      "City": "彭萨科拉"
    },
    {
      "Name": "工业博物馆",
      "Latitude": 30.4089578,
      "Longitude": -87.2115541,
      "Address": "200 萨拉戈萨ST，彭萨科拉，佛罗里达州32502，美国",
      "Phone": "(850) 595-5985",
      "Website": "http://historicpensacacola.org/plan-your-visit/museums-properties/museum-of--industry/",
      "City": "彭萨科拉"
    },
    {
      "Name": "彭萨科拉",
      "Latitude": 30.42130899999999,
      "Longitude": -87.2169149,
      "Address": "佛罗里达州彭萨科拉，FL 32501，美国",
      "Phone": "未知",
      "Website": "https://www.visitpensacola.com/",
      "City": "彭萨科拉"
    },
    {
      "Name": "彭萨科拉灯塔和海事博物馆",
      "Latitude": 30.3460366,
      "Longitude": -87.3080825,
      "Address": "佛罗里达州彭萨科拉市雷德福大道2081号，邮编32508，美国",
      "Phone": "(850) 393-1561",
      "Website": "http://www.pensacolalighthouse.org/",
      "City": "彭萨科拉"
    },
    {
      "Name": "飞溅城市冒险",
      "Latitude": 30.4880556,
      "Longitude": -87.2616667,
      "Address": "佛罗里达州彭萨科拉市彭萨科拉大道6709号，美国",
      "Phone": "(850) 505-0800",
      "Website": "http://splashcityadventure.com/",
      "City": "彭萨科拉"
    },
    {
      "Name": "彭萨科拉航空发现公园",
      "Latitude": 30.4715774,
      "Longitude": -87.18137349999999,
      "Address": "佛罗里达州彭萨科拉市杰里·梅花园路4200号，邮编32504，美国",
      "Phone": "未知",
      "Website": "未知",
      "City": "彭萨科拉"
    },
    {
      "Name": "塞维利亚广场",
      "Latitude": 30.4094849,
      "Longitude": -87.2097321,
      "Address": "311 E政府街，佛罗里达州彭萨科拉 32502，美国",
      "Phone": "(850) 436-5670",
      "Website": "http://www.ci.pensacola.fl.us/",
      "City": "彭萨科拉"
    },
    {
      "Name": "双一个虚张声势",
      "Latitude": 30.4597979,
      "Longitude": -87.164964,
      "Address": "3700风景高速公路，彭萨科拉，佛罗里达州32504，美国",
      "Phone": "未知",
      "Website": "未知",
      "City": "彭萨科拉"
    },
    {
      "Name": "pickens堡",
      "Latitude": 30.327303,
      "Longitude": -87.290514,
      "Address": "佛罗里达州彭萨科拉海滩皮肯斯堡路1400号，邮编32561，美国",
      "Phone": "未知",
      "Website": "https://www.nps.gov/guis/planyourvisit/fort-pickens-area.htm",
      "City": "彭萨科拉"
    }
  ],
  "彭萨科拉的餐馆": [
    {
      "Name": "青蛙空心小酒馆",
      "Average Cost": 20,
      "Cuisines": "美国，烧烤，快餐，咖啡馆，印度人",
      "Aggregate Rating": 4.3,
      "City": "彭萨科拉"
    },
    {
      "Name": "浆果补丁餐厅",
      "Average Cost": 13,
      "Cuisines": "面包店，烧烤，甜点，海鲜",
      "Aggregate Rating": 4.3,
      "City": "彭萨科拉"
    },
    {
      "Name": "贝利的bar-b-谁",
      "Average Cost": 13,
      "Cuisines": "茶，面包店，地中海",
      "Aggregate Rating": 4.1,
      "City": "彭萨科拉"
    },
    {
      "Name": "分水岭咖啡馆",
      "Average Cost": 12,
      "Cuisines": "中国，烧烤，甜点",
      "Aggregate Rating": 3.7,
      "City": "彭萨科拉"
    },
    {
      "Name": "蓝点烤架",
      "Average Cost": 75,
      "Cuisines": "法国，印度，咖啡馆，甜点",
      "Aggregate Rating": 4,
      "City": "彭萨科拉"
    },
    {
      "Name": "芝加哥披萨",
      "Average Cost": 32,
      "Cuisines": "披萨，地中海，快餐",
      "Aggregate Rating": 2.7,
      "City": "彭萨科拉"
    },
    {
      "Name": "幻影",
      "Average Cost": 94,
      "Cuisines": "甜点，披萨，咖啡馆，地中海，海鲜",
      "Aggregate Rating": 3.5,
      "City": "彭萨科拉"
    },
    {
      "Name": "水果pro",
      "Average Cost": 95,
      "Cuisines": "茶，咖啡馆，披萨，甜点",
      "Aggregate Rating": 0,
      "City": "彭萨科拉"
    },
    {
      "Name": "Kwality餐厅",
      "Average Cost": 29,
      "Cuisines": "甜点，茶，法国，快餐，中国",
      "Aggregate Rating": 0,
      "City": "彭萨科拉"
    },
    {
      "Name": "努卡德",
      "Average Cost": 100,
      "Cuisines": "茶，咖啡馆，美国，意大利语",
      "Aggregate Rating": 3.6,
      "City": "彭萨科拉"
    },
    {
      "Name": "凯文特的南印度和中国菜",
      "Average Cost": 32,
      "Cuisines": "烧烤，快餐",
      "Aggregate Rating": 2.8,
      "City": "彭萨科拉"
    },
    {
      "Name": "Ja那教咖啡馆",
      "Average Cost": 41,
      "Cuisines": "咖啡馆，印度，地中海，烧烤",
      "Aggregate Rating": 4.1,
      "City": "彭萨科拉"
    },
    {
      "Name": " 尼扎姆的凯瑟琳烤羊肉串",
      "Average Cost": 32,
      "Cuisines": "甜点，烧烤，快餐，美国，地中海",
      "Aggregate Rating": 3.8,
      "City": "彭萨科拉"
    },
    {
      "Name": "卡尔帕纳餐厅",
      "Average Cost": 36,
      "Cuisines": "茶，咖啡馆，面包店，美国",
      "Aggregate Rating": 3.2,
      "City": "彭萨科拉"
    },
    {
      "Name": "鸡蛋 -  Jaypee Siddharth",
      "Average Cost": 25,
      "Cuisines": "咖啡馆，烧烤，意大利语",
      "Aggregate Rating": 3.5,
      "City": "彭萨科拉"
    },
    {
      "Name": "Sigot",
      "Average Cost": 66,
      "Cuisines": "中国，面包店，海鲜",
      "Aggregate Rating": 3.1,
      "City": "彭萨科拉"
    },
    {
      "Name": "午夜枢纽-C",
      "Average Cost": 32,
      "Cuisines": "茶，披萨，面包店，烧烤，中国",
      "Aggregate Rating": 2.6,
      "City": "彭萨科拉"
    },
    {
      "Name": "沙玛·穆拉达巴迪",
      "Average Cost": 93,
      "Cuisines": "甜点，印度，烧烤",
      "Aggregate Rating": 0,
      "City": "彭萨科拉"
    },
    {
      "Name": "贪吃的肚子",
      "Average Cost": 96,
      "Cuisines": "咖啡馆，地中海，快餐",
      "Aggregate Rating": 3.3,
      "City": "彭萨科拉"
    },
    {
      "Name": "乔蒂达巴",
      "Average Cost": 11,
      "Cuisines": "茶，面包店，快餐",
      "Aggregate Rating": 0,
      "City": "彭萨科拉"
    },
    {
      "Name": "Shree Vinayaga餐厅",
      "Average Cost": 55,
      "Cuisines": "甜点，茶，披萨，法国，咖啡馆",
      "Aggregate Rating": 0,
      "City": "彭萨科拉"
    },
    {
      "Name": "优质中国快餐",
      "Average Cost": 89,
      "Cuisines": "茶，面包店，地中海，甜点",
      "Aggregate Rating": 0,
      "City": "彭萨科拉"
    },
    {
      "Name": "新鲜肉类公司",
      "Average Cost": 82,
      "Cuisines": "法国，海鲜，甜点，意大利语",
      "Aggregate Rating": 0,
      "City": "彭萨科拉"
    },
    {
      "Name": "令人震惊的",
      "Average Cost": 56,
      "Cuisines": "墨西哥，烧烤，甜点",
      "Aggregate Rating": 0,
      "City": "彭萨科拉"
    },
    {
      "Name": "神圣巴拉吉餐馆",
      "Average Cost": 93,
      "Cuisines": "快餐，海鲜，墨西哥，意大利语",
      "Aggregate Rating": 0,
      "City": "彭萨科拉"
    },
    {
      "Name": "Krispy厨房",
      "Average Cost": 78,
      "Cuisines": "快餐，面包店，甜点，意大利语",
      "Aggregate Rating": 0,
      "City": "彭萨科拉"
    },
    {
      "Name": "只是蔬菜",
      "Average Cost": 59,
      "Cuisines": "咖啡馆，甜点，快餐",
      "Aggregate Rating": 0,
      "City": "彭萨科拉"
    },
    {
      "Name": "代码",
      "Average Cost": 29,
      "Cuisines": "法国，面包店，印度，快餐",
      "Aggregate Rating": 2.5,
      "City": "彭萨科拉"
    },
    {
      "Name": "Satguru Tiffin服务",
      "Average Cost": 50,
      "Cuisines": "美国，烧烤，海鲜",
      "Aggregate Rating": 0,
      "City": "彭萨科拉"
    },
    {
      "Name": "Kayasth美食",
      "Average Cost": 69,
      "Cuisines": "甜点，咖啡馆，烧烤，快餐，中国，美国",
      "Aggregate Rating": 0,
      "City": "彭萨科拉"
    },
    {
      "Name": "南印度小屋",
      "Average Cost": 48,
      "Cuisines": "茶，海鲜，快餐",
      "Aggregate Rating": 3.4,
      "City": "彭萨科拉"
    },
    {
      "Name": "Saleem的外卖",
      "Average Cost": 37,
      "Cuisines": "中国，甜点，快餐，咖啡馆，海鲜",
      "Aggregate Rating": 2.6,
      "City": "彭萨科拉"
    },
    {
      "Name": "饥饿的枢纽",
      "Average Cost": 76,
      "Cuisines": "快餐，印度，烧烤，海鲜",
      "Aggregate Rating": 0,
      "City": "彭萨科拉"
    },
    {
      "Name": "Swad E旁遮普邦",
      "Average Cost": 80,
      "Cuisines": "披萨，面包店，咖啡馆，美国，海鲜",
      "Aggregate Rating": 0,
      "City": "彭萨科拉"
    },
    {
      "Name": "Mithaas糖果",
      "Average Cost": 86,
      "Cuisines": "披萨，面包店，烧烤，咖啡馆，印度，地中海",
      "Aggregate Rating": 3.1,
      "City": "彭萨科拉"
    },
    {
      "Name": "泉水比利时啤酒咖啡馆",
      "Average Cost": 89,
      "Cuisines": "美国，烧烤，快餐",
      "Aggregate Rating": 2.3,
      "City": "彭萨科拉"
    },
    {
      "Name": "十月汉堡",
      "Average Cost": 33,
      "Cuisines": "披萨，甜点，快餐",
      "Aggregate Rating": 4.5,
      "City": "彭萨科拉"
    },
    {
      "Name": "加加软管",
      "Average Cost": 17,
      "Cuisines": "茶，甜点，披萨，烧烤",
      "Aggregate Rating": 4.9,
      "City": "彭萨科拉"
    }
  ],
  "神圣巴拉吉餐馆": [
    {
      "NAME": "迷人的一间卧室公寓在莱斯/唐人街",
      "price": 430,
      "room type": "整个房屋/公寓",
      "house_rules": "没有聚会，没有10岁以下的孩子",
      "minimum nights": 4,
      "maximum occupancy": 4,
      "review rate number": 1,
      "city": "彭萨科拉"
    },
    {
      "NAME": "豪华东村顶层豪华甲板",
      "price": 697,
      "room type": "整个房屋/公寓",
      "house_rules": "没有访客",
      "minimum nights": 2,
      "maximum occupancy": 6,
      "review rate number": 3,
      "city": "彭萨科拉"
    },
    {
      "NAME": "博物馆，花园和公园附近的惊人公寓！",
      "price": 74,
      "room type": "整个房屋/公寓",
      "house_rules": "没有聚会",
      "minimum nights": 17,
      "maximum occupancy": 3,
      "review rate number": 5,
      "city": "彭萨科拉"
    },
    {
      "NAME": "舒适的1卧室公寓距地铁2个街区",
      "price": 339,
      "room type": "整个房屋/公寓",
      "house_rules": "没有聚会",
      "minimum nights": 2,
      "maximum occupancy": 3,
      "review rate number": 4,
      "city": "彭萨科拉"
    },
    {
      "NAME": "惊人的2BR公寓电视/洗衣！",
      "price": 56,
      "room type": "整个房屋/公寓",
      "house_rules": "没有聚会，没有10岁以下的孩子，也没有宠物",
      "minimum nights": 30,
      "maximum occupancy": 2,
      "review rate number": 4,
      "city": "彭萨科拉"
    },
    {
      "NAME": "时尚的历史悠久的哈林·棕色",
      "price": 526,
      "room type": "整个房屋/公寓",
      "house_rules": "禁止抽烟",
      "minimum nights": 3,
      "maximum occupancy": 2,
      "review rate number": 4,
      "city": "彭萨科拉"
    },
    {
      "NAME": "干净舒适的布鲁克林房间",
      "price": 514,
      "room type": "私人房间",
      "house_rules": "没有宠物",
      "minimum nights": 1,
      "maximum occupancy": 1,
      "review rate number": 3,
      "city": "彭萨科拉"
    },
    {
      "NAME": "帝国大厦公寓",
      "price": 662,
      "room type": "整个房屋/公寓",
      "house_rules": "没有吸烟，没有访客",
      "minimum nights": 7,
      "maximum occupancy": 2,
      "review rate number": 5,
      "city": "彭萨科拉"
    },
    {
      "NAME": "曼哈顿旅馆的1D私人RM",
      "price": 378,
      "room type": "私人房间",
      "house_rules": "没有游客，没有聚会",
      "minimum nights": 1,
      "maximum occupancy": 1,
      "review rate number": 3,
      "city": "彭萨科拉"
    },
    {
      "NAME": "时尚而舒适的东村2卧室公寓",
      "price": 1036,
      "room type": "整个房屋/公寓",
      "house_rules": "没有聚会",
      "minimum nights": 1,
      "maximum occupancy": 5,
      "review rate number": 4,
      "city": "彭萨科拉"
    },
    {
      "NAME": "舒适的房间",
      "price": 92,
      "room type": "私人房间",
      "house_rules": "没有聚会，没有吸烟，也没有宠物",
      "minimum nights": 4,
      "maximum occupancy": 1,
      "review rate number": 2,
      "city": "彭萨科拉"
    },
    {
      "NAME": "宽敞的1BR避风港，带甲板",
      "price": 1050,
      "room type": "私人房间",
      "house_rules": "没有聚会",
      "minimum nights": 7,
      "maximum occupancy": 2,
      "review rate number": 2,
      "city": "彭萨科拉"
    }
  ],
  "2022年3月27日从堪萨斯城飞往彭萨科拉的航班": "2022-03-27从堪萨斯城飞往彭萨科拉没有飞行。",
  "自驾车从堪萨斯城到彭萨科拉": "自动驾驶，从堪萨斯城到彭萨科拉，持续时间：14小时4分钟，距离：1,433公里，费用：71",
  "从堪萨斯城到彭萨科拉的出租车": "出租车，从堪萨斯城到彭萨科拉，持续时间：14小时4分钟，距离：1,433公里，费用：1433",
  "2012-03-29从彭萨科拉飞往堪萨斯城的航班": "2022-03-29没有从彭萨科拉飞往堪萨斯城的飞行。",
  "自驾车从彭萨科拉到堪萨斯城": "自动驾驶，从彭萨科拉到堪萨斯城，持续时间：14小时0分钟，距离：1,447公里，费用：72",
  "从彭萨科拉到堪萨斯城的出租车": "出租车，从彭萨科拉到堪萨斯城，持续时间：14小时0分钟，距离：1,447公里，费用：1447",
  "斯托克顿景点": [
    {
      "Name": "斯托克顿儿童博物馆",
      "Latitude": 37.9519756,
      "Longitude": -121.2967856,
      "Address": "加利福尼亚州斯托克顿韦伯大街402号，邮编95203，美国",
      "Phone": "(209) 465-4386",
      "Website": "https://www.childrensmuseumstockton.org/",
      "City": "斯托克顿"
    },
    {
      "Name": "哈金博物馆",
      "Latitude": 37.9605722,
      "Longitude": -121.3138609,
      "Address": "加利福尼亚州斯托克顿市潘兴大道1201号，邮编95203，美国",
      "Phone": "(209) 940-6300",
      "Website": "http://www.hagginmuseum.org/",
      "City": "斯托克顿"
    },
    {
      "Name": "路易公园",
      "Latitude": 37.9558644,
      "Longitude": -121.3464878,
      "Address": "加利福尼亚州斯托克顿蒙特迪亚波罗大街3121号，邮编95203，美国",
      "Phone": "(209) 937-8206",
      "Website": "http://www.stocktongov.com/",
      "City": "斯托克顿"
    },
    {
      "Name": "斯托克顿水塔",
      "Latitude": 37.956838,
      "Longitude": -121.3185108,
      "Address": "加利福尼亚州斯托克顿布埃纳维斯塔大街811号，邮编95203，美国",
      "Phone": "未知",
      "Website": "未知",
      "City": "斯托克顿"
    },
    {
      "Name": "奇迹英里",
      "Latitude": 37.9717771,
      "Longitude": -121.30132,
      "Address": "加州斯托克顿Tuxedo大街221号，邮编952044，美国",
      "Phone": "(209) 623-1144",
      "Website": "http://www.stocktonmiraclemile.com/",
      "City": "斯托克顿"
    },
    {
      "Name": "巴克利湾公园",
      "Latitude": 37.9748014,
      "Longitude": -121.3756927,
      "Address": "巴克利湾路，斯托克顿，加州95219，美国",
      "Phone": "(209) 937-8539",
      "Website": "未知",
      "City": "斯托克顿"
    },
    {
      "Name": "wat Dhammararam佛教寺庙",
      "Latitude": 37.9243986,
      "Longitude": -121.2251909,
      "Address": "加利福尼亚州斯托克顿卡彭特路3732号，邮编95215，美国",
      "Phone": "(209) 943-2883",
      "Website": "http://www.watdhammararamarambuddhist.org",
      "City": "斯托克顿"
    },
    {
      "Name": "琼·达拉长廊",
      "Latitude": 37.95318710000001,
      "Longitude": -121.2931709,
      "Address": "加州斯托克顿韦伯大道西路95202号，美国",
      "Phone": "未知",
      "Website": "未知",
      "City": "斯托克顿"
    },
    {
      "Name": "斯托克顿钻石铁路交叉",
      "Latitude": 37.9467542,
      "Longitude": -121.2758804,
      "Address": "796 S萨克拉曼多街，斯托克顿，加利福尼亚州95205，美国",
      "Phone": "未知",
      "Website": "未知",
      "City": "斯托克顿"
    },
    {
      "Name": "美国军团公园",
      "Latitude": 37.9680472,
      "Longitude": -121.3080513,
      "Address": "斯托克顿，加利福尼亚州95204，美国",
      "Phone": "(209) 937-8206",
      "Website": "http://www.stocktongov.com/services/parkrec/default.html",
      "City": "斯托克顿"
    },
    {
      "Name": "墨西哥遗产中心和画廊",
      "Latitude": 37.9522222,
      "Longitude": -121.2858333,
      "Address": "加利福尼亚州斯托克顿市萨特街111号，邮编95206，美国",
      "Phone": "(209) 969-9306",
      "Website": "http://www.mexicanheritagecenter.org/",
      "City": "斯托克顿"
    },
    {
      "Name": "访问斯托克顿",
      "Latitude": 37.9528632,
      "Longitude": -121.2937217,
      "Address": "加州斯托克顿韦伯大街146号，邮编95202，美国",
      "Phone": "(209) 938-1555",
      "Website": "http://www.visitstockton.org/",
      "City": "斯托克顿"
    },
    {
      "Name": "上斯托克顿钻石铁路交叉",
      "Latitude": 37.96859329999999,
      "Longitude": -121.2693805,
      "Address": "斯托克顿,CA 95205，美国",
      "Phone": "未知",
      "Website": "未知",
      "City": "斯托克顿"
    },
    {
      "Name": "斯托克顿现场航空博物馆",
      "Latitude": 37.8907085,
      "Longitude": -121.2427084,
      "Address": "加利福尼亚州斯托克顿市迪克森街7430号，美国",
      "Phone": "(209) 982-0273",
      "Website": "http://www.stocktonfieldmuseum.org/",
      "City": "斯托克顿"
    },
    {
      "Name": "苏萨公园",
      "Latitude": 37.9576352,
      "Longitude": -121.2487092,
      "Address": "2829黄石大道，斯托克顿，CA 95205，美国",
      "Phone": "(209) 937-8206",
      "Website": "http://www.stocktongov.com/government/departments/publicworks/contactus.html",
      "City": "斯托克顿"
    },
    {
      "Name": "斯托克顿竞技场",
      "Latitude": 37.9561651,
      "Longitude": -121.2960735,
      "Address": "加利福尼亚州斯托克顿市西弗里蒙特街248号，邮编95203，美国",
      "Phone": "(209) 373-1400",
      "Website": "http://stocktonlive.com/",
      "City": "斯托克顿"
    },
    {
      "Name": "Shumway Oak Grove地区公园",
      "Latitude": 38.0574996,
      "Longitude": -121.3638536,
      "Address": "4520 W八英里路，斯托克顿，加利福尼亚州95209，美国",
      "Phone": "(209) 953-8800",
      "Website": "http://www.sjparks.com/parks/oak-grove-grogional-park.aspx",
      "City": "斯托克顿"
    },
    {
      "Name": "加里根公园",
      "Latitude": 38.04405,
      "Longitude": -121.36532,
      "Address": "加州斯托克顿铁峡谷公路3690号，邮编95209，美国",
      "Phone": "(209) 937-8411",
      "Website": "http://www.stocktongov.com/government/departments/publicworks/contactus.html",
      "City": "斯托克顿"
    },
    {
      "Name": "吉本公园",
      "Latitude": 38.0218141,
      "Longitude": -121.3371861,
      "Address": "斯托克顿，加利福尼亚州95209，美国",
      "Phone": "未知",
      "Website": "未知",
      "City": "斯托克顿"
    },
    {
      "Name": "菲律宾美国国家历史学会博物馆",
      "Latitude": 37.9545233,
      "Longitude": -121.2865715,
      "Address": "加州斯托克顿韦伯大街337号邮编95202，美国",
      "Phone": "(209) 932-9037",
      "Website": "http://fanhsmuseum.com/",
      "City": "斯托克顿"
    }
  ],
  "斯托克顿的餐馆": [
    {
      "Name": "东城啾啾",
      "Average Cost": 40,
      "Cuisines": "茶，中国，面包店",
      "Aggregate Rating": 3.9,
      "City": "斯托克顿"
    },
    {
      "Name": "Biaggi的意大利餐厅",
      "Average Cost": 20,
      "Cuisines": "法国，面包店，咖啡馆，海鲜",
      "Aggregate Rating": 4.1,
      "City": "斯托克顿"
    },
    {
      "Name": "寿司家族",
      "Average Cost": 72,
      "Cuisines": "面包店，披萨，咖啡馆",
      "Aggregate Rating": 3.6,
      "City": "斯托克顿"
    },
    {
      "Name": "二十四个",
      "Average Cost": 92,
      "Cuisines": "甜点，茶，意大利，烧烤，快餐，美国",
      "Aggregate Rating": 3.4,
      "City": "斯托克顿"
    },
    {
      "Name": "双胞胎兄弟",
      "Average Cost": 32,
      "Cuisines": "茶，披萨，法国，面包店，海鲜",
      "Aggregate Rating": 0,
      "City": "斯托克顿"
    },
    {
      "Name": "Dimse＆Co.。",
      "Average Cost": 40,
      "Cuisines": "中国，面包店，烧烤，海鲜",
      "Aggregate Rating": 3.9,
      "City": "斯托克顿"
    },
    {
      "Name": "机械披萨",
      "Average Cost": 47,
      "Cuisines": "披萨，烧烤，地中海",
      "Aggregate Rating": 3.5,
      "City": "斯托克顿"
    },
    {
      "Name": "咖啡师",
      "Average Cost": 77,
      "Cuisines": "咖啡馆，墨西哥，面包店，海鲜",
      "Aggregate Rating": 0,
      "City": "斯托克顿"
    },
    {
      "Name": "Radhakrishna酒店",
      "Average Cost": 63,
      "Cuisines": "甜点，意大利，面包店，快餐，海鲜",
      "Aggregate Rating": 3.5,
      "City": "斯托克顿"
    },
    {
      "Name": "高街厨房和酒吧",
      "Average Cost": 100,
      "Cuisines": "甜点，茶，墨西哥，烧烤，快餐，地中海",
      "Aggregate Rating": 2.9,
      "City": "斯托克顿"
    },
    {
      "Name": "松饼",
      "Average Cost": 26,
      "Cuisines": "海鲜，甜点，意大利语",
      "Aggregate Rating": 3.5,
      "City": "斯托克顿"
    },
    {
      "Name": "中国大陆",
      "Average Cost": 38,
      "Cuisines": "茶，烧烤，地中海",
      "Aggregate Rating": 3.7,
      "City": "斯托克顿"
    },
    {
      "Name": "烤箱披萨",
      "Average Cost": 81,
      "Cuisines": "面包店，美国，快餐",
      "Aggregate Rating": 3.3,
      "City": "斯托克顿"
    },
    {
      "Name": "阿加瓦尔甜角餐厅",
      "Average Cost": 33,
      "Cuisines": "茶，海鲜，披萨，意大利语",
      "Aggregate Rating": 2.6,
      "City": "斯托克顿"
    },
    {
      "Name": "打破快速交界处",
      "Average Cost": 46,
      "Cuisines": "快餐，披萨，面包店，意大利语",
      "Aggregate Rating": 0,
      "City": "斯托克顿"
    },
    {
      "Name": "手指lici",
      "Average Cost": 50,
      "Cuisines": "甜点，茶，披萨，意大利语，咖啡馆",
      "Aggregate Rating": 3.4,
      "City": "斯托克顿"
    },
    {
      "Name": "素食adda",
      "Average Cost": 85,
      "Cuisines": "甜点，美国，烧烤，快餐",
      "Aggregate Rating": 3.4,
      "City": "斯托克顿"
    },
    {
      "Name": "金叶",
      "Average Cost": 34,
      "Cuisines": "茶，法国，中国，快餐",
      "Aggregate Rating": 3,
      "City": "斯托克顿"
    },
    {
      "Name": "蓝色的tandoor",
      "Average Cost": 16,
      "Cuisines": "咖啡馆，美国，海鲜",
      "Aggregate Rating": 2.6,
      "City": "斯托克顿"
    },
    {
      "Name": "Aayush食品广场",
      "Average Cost": 70,
      "Cuisines": "茶，法国，披萨，意大利语",
      "Aggregate Rating": 2.9,
      "City": "斯托克顿"
    },
    {
      "Name": "nand bhai chholey bhature",
      "Average Cost": 33,
      "Cuisines": "茶，面包店，烧烤，美国，海鲜",
      "Aggregate Rating": 0,
      "City": "斯托克顿"
    },
    {
      "Name": "旁遮普的饮食中心",
      "Average Cost": 45,
      "Cuisines": "茶，中国，面包店，甜点",
      "Aggregate Rating": 3.3,
      "City": "斯托克顿"
    },
    {
      "Name": "二十四个",
      "Average Cost": 70,
      "Cuisines": "甜点，茶，快餐，印度，地中海",
      "Aggregate Rating": 0,
      "City": "斯托克顿"
    },
    {
      "Name": "地铁",
      "Average Cost": 58,
      "Cuisines": "咖啡馆，墨西哥，面包店，快餐",
      "Aggregate Rating": 2.6,
      "City": "斯托克顿"
    },
    {
      "Name": "Gola Sizzlers",
      "Average Cost": 45,
      "Cuisines": "茶，地中海，甜点，意大利语",
      "Aggregate Rating": 3.3,
      "City": "斯托克顿"
    },
    {
      "Name": "Dilli 6的Zaika",
      "Average Cost": 70,
      "Cuisines": "甜点，披萨，快餐，印度，海鲜",
      "Aggregate Rating": 0,
      "City": "斯托克顿"
    },
    {
      "Name": "炒了",
      "Average Cost": 26,
      "Cuisines": "甜点，茶，意大利，烧烤，快餐，中国",
      "Aggregate Rating": 3.7,
      "City": "斯托克顿"
    }
  ],
  "斯托克顿住宿": [
    {
      "NAME": "滨水区，完美的纽约游览！",
      "price": 607,
      "room type": "整个房屋/公寓",
      "house_rules": "没有聚会，没有10岁以下的孩子",
      "minimum nights": 2,
      "maximum occupancy": 6,
      "review rate number": 4,
      "city": "斯托克顿"
    },
    {
      "NAME": "华丽的布鲁克林卧室，豪华装饰",
      "price": 920,
      "room type": "私人房间",
      "house_rules": "没有10岁以下的孩子，也没有宠物，也没有吸烟",
      "minimum nights": 2,
      "maximum occupancy": 2,
      "review rate number": 4,
      "city": "斯托克顿"
    },
    {
      "NAME": "私人现代房间（长期1个月或更长时间）",
      "price": 486,
      "room type": "私人房间",
      "house_rules": "没有聚会",
      "minimum nights": 2,
      "maximum occupancy": 1,
      "review rate number": 2,
      "city": "斯托克顿"
    },
    {
      "NAME": "宽敞的2 BDR APT布鲁克林睡觉8！",
      "price": 1072,
      "room type": "整个房屋/公寓",
      "house_rules": "没有访客",
      "minimum nights": 2,
      "maximum occupancy": 5,
      "review rate number": 3,
      "city": "斯托克顿"
    },
    {
      "NAME": "豪华的威廉斯堡阁楼和私人露台",
      "price": 950,
      "room type": "整个房屋/公寓",
      "house_rules": "没有宠物，没有游客，也没有10岁以下的孩子",
      "minimum nights": 5,
      "maximum occupancy": 2,
      "review rate number": 5,
      "city": "斯托克顿"
    },
    {
      "NAME": "绿点绿洲",
      "price": 170,
      "room type": "整个房屋/公寓",
      "house_rules": "没有10岁以下的孩子",
      "minimum nights": 365,
      "maximum occupancy": 3,
      "review rate number": 3,
      "city": "斯托克顿"
    },
    {
      "NAME": "私人APT 2BR/1 BATH/厨房/我们家中的停车位",
      "price": 420,
      "room type": "整个房屋/公寓",
      "house_rules": "没有宠物",
      "minimum nights": 1,
      "maximum occupancy": 4,
      "review rate number": 2,
      "city": "斯托克顿"
    },
    {
      "NAME": "我在上东区的高级1卧室房屋",
      "price": 444,
      "room type": "整个房屋/公寓",
      "house_rules": "没有宠物",
      "minimum nights": 3,
      "maximum occupancy": 2,
      "review rate number": 4,
      "city": "斯托克顿"
    },
    {
      "NAME": "西部中城的一间卧室。",
      "price": 279,
      "room type": "整个房屋/公寓",
      "house_rules": "没有聚会",
      "minimum nights": 30,
      "maximum occupancy": 3,
      "review rate number": 2,
      "city": "斯托克顿"
    },
    {
      "NAME": "明亮公寓的私人房间和浴室",
      "price": 1081,
      "room type": "私人房间",
      "house_rules": "没有吸烟，没有10岁以下的孩子",
      "minimum nights": 2,
      "maximum occupancy": 1,
      "review rate number": 1,
      "city": "斯托克顿"
    },
    {
      "NAME": "在曼哈顿中部完全舒适！",
      "price": 455,
      "room type": "整个房屋/公寓",
      "house_rules": "没有聚会",
      "minimum nights": 4,
      "maximum occupancy": 3,
      "review rate number": 1,
      "city": "斯托克顿"
    },
    {
      "NAME": "舒适的卧室配堡垒",
      "price": 484,
      "room type": "私人房间",
      "house_rules": "没有聚会",
      "minimum nights": 3,
      "maximum occupancy": 1,
      "review rate number": 2,
      "city": "斯托克顿"
    }
  ],
  "2022年3月3日拉斯维加斯飞往斯托克顿的航班": [
    {
      "Flight Number": "F3576711",
      "Price": 96,
      "DepTime": "06:01",
      "ArrTime": "07:28",
      "ActualElapsedTime": "1小时27分钟",
      "FlightDate": "2022-03-03",
      "OriginCityName": "拉斯维加斯",
      "DestCityName": "斯托克顿",
      "Distance": 359
    },
    {
      "Flight Number": "F3580830",
      "Price": 91,
      "DepTime": "20:08",
      "ArrTime": "21:30",
      "ActualElapsedTime": "1小时22分钟",
      "FlightDate": "2022-03-03",
      "OriginCityName": "拉斯维加斯",
      "DestCityName": "斯托克顿",
      "Distance": 359
    }
  ],
  "自驾车从拉斯维加斯到斯托克顿": "自动驾驶，从拉斯维加斯到斯托克顿，持续时间：7小时46分钟，距离：835公里，费用：41",
  "从拉斯维加斯到斯托克顿的出租车": "出租车，从拉斯维加斯到斯托克顿，持续时间：7小时46分钟，距离：835公里，费用：835",
  "2022年3月5日从斯托克顿飞往拉斯维加斯的航班": [
    {
      "Flight Number": "F3576850",
      "Price": 165,
      "DepTime": "13:42",
      "ArrTime": "15:03",
      "ActualElapsedTime": "1小时21分钟",
      "FlightDate": "2022-03-05",
      "OriginCityName": "斯托克顿",
      "DestCityName": "拉斯维加斯",
      "Distance": 359
    }
  ],
  "从斯托克顿到拉斯维加斯的自驾": "自动驾驶，从斯托克顿到拉斯维加斯，持续时间：7小时50分钟，距离：836公里，费用：41",
  "从斯托克顿到拉斯维加斯的出租车": "出租车，从斯托克顿到拉斯维加斯，持续时间：7小时50分钟，距离：836公里，费用：836",
  "路易斯维尔的景点": [
    {
      "Name": "路易斯维尔大型洞穴",
      "Latitude": 38.2012259,
      "Longitude": -85.703929,
      "Address": "泰勒大道1841号，路易斯维尔，肯塔基州40213，美国",
      "Phone": "(877) 614-6342",
      "Website": "https://louisvillemegacavern.com/",
      "City": "路易斯维尔"
    },
    {
      "Name": "路易斯维尔斯拉格博物馆和工厂",
      "Latitude": 38.25713559999999,
      "Longitude": -85.7639796,
      "Address": "路易斯维尔西大街800号，肯塔基州40202，美国",
      "Phone": "(877) 775-8443",
      "Website": "http://www.sluggermuseum.com/",
      "City": "路易斯维尔"
    },
    {
      "Name": "肯塔基科学中心",
      "Latitude": 38.2576145,
      "Longitude": -85.76265699999999,
      "Address": "路易斯维尔西大街727号，肯塔基州40202，美国",
      "Phone": "(502) 561-6100",
      "Website": "http://www.kysciencecenter.org/",
      "City": "路易斯维尔"
    },
    {
      "Name": "路易斯维尔动物园",
      "Latitude": 38.2057299,
      "Longitude": -85.7071264,
      "Address": "特雷维廉路1100号，肯塔基州路易斯维尔，美国40213，美国",
      "Phone": "(502) 459-2181",
      "Website": "https://louisvillezoo.org/",
      "City": "路易斯维尔"
    },
    {
      "Name": "弗雷泽历史博物馆",
      "Latitude": 38.2577529,
      "Longitude": -85.7644972,
      "Address": "西大街829号，路易斯维尔，肯塔基州40202，美国",
      "Phone": "(502) 753-5663",
      "Website": "http://www.fraziermuseum.org/",
      "City": "路易斯维尔"
    },
    {
      "Name": "Waverly Hills疗养院",
      "Latitude": 38.1301221,
      "Longitude": -85.8416929,
      "Address": "4400 残疾人医生，路易斯维尔，肯塔基州40272，美国",
      "Phone": "(502) 690-7880",
      "Website": "http://www.therealwaverlyhills.com/",
      "City": "路易斯维尔"
    },
    {
      "Name": "肯塔基德比博物馆",
      "Latitude": 38.2054621,
      "Longitude": -85.7710699,
      "Address": "路易斯维尔中央大街704号，肯塔基州40208，美国",
      "Phone": "(502) 637-1111",
      "Website": "http://www.derbymuseum.org/",
      "City": "路易斯维尔"
    },
    {
      "Name": "切诺基公园",
      "Latitude": 38.2399656,
      "Longitude": -85.6993663,
      "Address": "洛克伦山路745号，路易斯维尔，肯塔基州40206，美国",
      "Phone": "(502) 574-7275",
      "Website": "https://louisvilleky.gov/government/parks/park-list/cherokee-park",
      "City": "路易斯维尔"
    },
    {
      "Name": "城市手推车",
      "Latitude": 38.2580913,
      "Longitude": -85.75648559999999,
      "Address": "北四街140号，美国肯塔基州路易斯维尔40202，美国",
      "Phone": "(502) 939-3415",
      "Website": "https://trolleydeville.com/",
      "City": "路易斯维尔"
    },
    {
      "Name": "丘吉尔·唐斯",
      "Latitude": 38.2037252,
      "Longitude": -85.77239879999999,
      "Address": "美国肯塔基州路易斯维尔市中央大街700号，美国40208，美国",
      "Phone": "(502) 636-4400",
      "Website": "http://www.churchilldowns.com/",
      "City": "路易斯维尔"
    },
    {
      "Name": "速度艺术博物馆",
      "Latitude": 38.2183706,
      "Longitude": -85.7609428,
      "Address": "40208，肯塔基州路易斯维尔市南三街2035号，美国",
      "Phone": "(502) 634-2700",
      "Website": "http://www.speedmuseum.org/",
      "City": "路易斯维尔"
    },
    {
      "Name": "海滨公园",
      "Latitude": 38.26073890000001,
      "Longitude": -85.74260129999999,
      "Address": "美国肯塔基州路易斯维尔市129 River Rd，美国40202，美国",
      "Phone": "(502) 574-3768",
      "Website": "https://ourwaterfront.org/",
      "City": "路易斯维尔"
    },
    {
      "Name": "路易斯维尔下的灯光",
      "Latitude": 38.2015141,
      "Longitude": -85.7040882,
      "Address": "泰勒大道1841号，路易斯维尔，肯塔基州40213，美国",
      "Phone": "(877) 614-6342",
      "Website": "http://lightsunderlouisville.com/",
      "City": "路易斯维尔"
    },
    {
      "Name": "康拉德-考德威尔住宅博物馆",
      "Latitude": 38.2291479,
      "Longitude": -85.76342230000002,
      "Address": "圣詹姆斯CT 1402，路易斯维尔，肯塔基州40208，美国",
      "Phone": "(502) 636-5023",
      "Website": "http://conrad-caldwell.org/",
      "City": "路易斯维尔"
    },
    {
      "Name": "路易斯维尔自然中心",
      "Latitude": 38.2096492,
      "Longitude": -85.7111025,
      "Address": "伊利诺伊州大道3745号，路易斯维尔，肯塔基州40213，美国",
      "Phone": "(502) 458-1328",
      "Website": "http://louisvillenaturecenter.org/",
      "City": "路易斯维尔"
    },
    {
      "Name": "蝗虫林",
      "Latitude": 38.28645400000001,
      "Longitude": -85.66138699999999,
      "Address": "561 Blankenbaker LN，肯塔基州路易斯维尔，美国40207，美国",
      "Phone": "(502) 897-9845",
      "Website": "http://www.locustgrove.org/",
      "City": "路易斯维尔"
    },
    {
      "Name": "穆罕默德·阿里中心",
      "Latitude": 38.25847619999999,
      "Longitude": -85.75980480000001,
      "Address": "144 N 6th St，美国肯塔基州路易斯维尔40202，美国",
      "Phone": "(502) 584-9254",
      "Website": "https://alicenter.org/",
      "City": "路易斯维尔"
    },
    {
      "Name": "易洛魁公园",
      "Latitude": 38.1608222,
      "Longitude": -85.7803059,
      "Address": "美国肯塔基州路易斯维尔市伦迪尔路2120号，美国",
      "Phone": "(502) 363-7766",
      "Website": "https://louisvilleky.gov/government/parks/park-list/iroquois-park",
      "City": "路易斯维尔"
    },
    {
      "Name": "路易斯维尔结",
      "Latitude": 38.257531,
      "Longitude": -85.7656208,
      "Address": "路易斯维尔西大街8号，肯塔基州40202，美国",
      "Phone": "未知",
      "Website": "未知",
      "City": "路易斯维尔"
    },
    {
      "Name": "KMAC当代艺术博物馆",
      "Latitude": 38.257524,
      "Longitude": -85.762142,
      "Address": "715 W Main St，路易斯维尔，肯塔基州40202，美国",
      "Phone": "(502) 589-0102",
      "Website": "http://www.kmacmuseum.org/",
      "City": "路易斯维尔"
    }
  ],
  "路易斯维尔的餐馆": [
    {
      "Name": "布法罗野生翅膀",
      "Average Cost": 22,
      "Cuisines": "茶，面包店，烧烤，快餐，美国",
      "Aggregate Rating": 3.4,
      "City": "路易斯维尔"
    },
    {
      "Name": "钢木兰",
      "Average Cost": 26,
      "Cuisines": "意大利语，墨西哥，快餐，咖啡馆，海鲜",
      "Aggregate Rating": 3.8,
      "City": "路易斯维尔"
    },
    {
      "Name": "Idli Xpress先生",
      "Average Cost": 51,
      "Cuisines": "咖啡馆，地中海，快餐",
      "Aggregate Rating": 2.6,
      "City": "路易斯维尔"
    },
    {
      "Name": "巴尔吉餐馆",
      "Average Cost": 77,
      "Cuisines": "海鲜，面包店，意大利语",
      "Aggregate Rating": 0,
      "City": "路易斯维尔"
    },
    {
      "Name": "Sangam糖果",
      "Average Cost": 18,
      "Cuisines": "面包店，披萨，咖啡馆，甜点",
      "Aggregate Rating": 2.5,
      "City": "路易斯维尔"
    },
    {
      "Name": "早餐角",
      "Average Cost": 46,
      "Cuisines": "茶，比萨，法国，面包店，咖啡馆",
      "Aggregate Rating": 3.1,
      "City": "路易斯维尔"
    },
    {
      "Name": "拉拉龙",
      "Average Cost": 21,
      "Cuisines": "茶，咖啡馆，地中海，快餐",
      "Aggregate Rating": 0,
      "City": "路易斯维尔"
    },
    {
      "Name": "QD的餐厅",
      "Average Cost": 60,
      "Cuisines": "墨西哥，面包店，快餐，咖啡馆，海鲜",
      "Aggregate Rating": 3.9,
      "City": "路易斯维尔"
    },
    {
      "Name": "零食等等",
      "Average Cost": 59,
      "Cuisines": "茶，比萨，意大利，咖啡馆，印度，海鲜",
      "Aggregate Rating": 0,
      "City": "路易斯维尔"
    },
    {
      "Name": "麦当劳",
      "Average Cost": 33,
      "Cuisines": "茶，法国，披萨，意大利语",
      "Aggregate Rating": 3.2,
      "City": "路易斯维尔"
    },
    {
      "Name": "人民面包店",
      "Average Cost": 48,
      "Cuisines": "茶，快餐，地中海，意大利语",
      "Aggregate Rating": 3.6,
      "City": "路易斯维尔"
    },
    {
      "Name": "阿格瓦尔的糖果天堂",
      "Average Cost": 60,
      "Cuisines": "茶，法国，面包店，咖啡馆",
      "Aggregate Rating": 2.7,
      "City": "路易斯维尔"
    },
    {
      "Name": "维克兰咖啡馆",
      "Average Cost": 86,
      "Cuisines": "茶，面包店，快餐，地中海，海鲜",
      "Aggregate Rating": 3.3,
      "City": "路易斯维尔"
    },
    {
      "Name": "神圣班基比哈里布拉杰瓦西甜品店",
      "Average Cost": 79,
      "Cuisines": "茶，咖啡馆",
      "Aggregate Rating": 3.5,
      "City": "路易斯维尔"
    },
    {
      "Name": "维什诺小吃店",
      "Average Cost": 48,
      "Cuisines": "咖啡馆，面包店，海鲜",
      "Aggregate Rating": 3.9,
      "City": "路易斯维尔"
    },
    {
      "Name": "藏红花",
      "Average Cost": 12,
      "Cuisines": "甜点，茶，面包店，快餐，中国",
      "Aggregate Rating": 4.5,
      "City": "路易斯维尔"
    },
    {
      "Name": "橙色咖啡馆和餐厅",
      "Average Cost": 83,
      "Cuisines": "甜点，茶，披萨，墨西哥，烧烤",
      "Aggregate Rating": 3.1,
      "City": "路易斯维尔"
    },
    {
      "Name": "新的Gaurav Dhaba",
      "Average Cost": 97,
      "Cuisines": "甜点，烧烤，印度，地中海，海鲜",
      "Aggregate Rating": 0,
      "City": "路易斯维尔"
    },
    {
      "Name": "白沙瓦里",
      "Average Cost": 74,
      "Cuisines": "茶，披萨，烧烤，甜点",
      "Aggregate Rating": 3.6,
      "City": "路易斯维尔"
    },
    {
      "Name": "午夜英雄",
      "Average Cost": 35,
      "Cuisines": "甜点，披萨，墨西哥，美国，海鲜",
      "Aggregate Rating": 3.6,
      "City": "路易斯维尔"
    },
    {
      "Name": "由Wedcraft进行巧克力",
      "Average Cost": 22,
      "Cuisines": "快餐，法国，印度，海鲜",
      "Aggregate Rating": 0,
      "City": "路易斯维尔"
    },
    {
      "Name": "Gayatri的Break Point餐厅",
      "Average Cost": 39,
      "Cuisines": "海鲜，面包店，甜点，快餐",
      "Aggregate Rating": 3.1,
      "City": "路易斯维尔"
    },
    {
      "Name": "Prerna家庭餐厅",
      "Average Cost": 70,
      "Cuisines": "咖啡馆，美国，地中海，海鲜",
      "Aggregate Rating": 0,
      "City": "路易斯维尔"
    },
    {
      "Name": "肯尼·罗杰斯·烘焙师",
      "Average Cost": 17,
      "Cuisines": "茶，比萨，意大利，咖啡馆，印度，海鲜",
      "Aggregate Rating": 3.7,
      "City": "路易斯维尔"
    },
    {
      "Name": "F-all（所有人的食物）",
      "Average Cost": 42,
      "Cuisines": "茶，披萨，墨西哥，面包店，快餐",
      "Aggregate Rating": 3.4,
      "City": "路易斯维尔"
    },
    {
      "Name": "多米诺的比萨",
      "Average Cost": 100,
      "Cuisines": "甜点，茶，面包店，地中海，海鲜",
      "Aggregate Rating": 2.4,
      "City": "路易斯维尔"
    },
    {
      "Name": "鱼曲",
      "Average Cost": 73,
      "Cuisines": "中国，墨西哥，面包店，咖啡馆",
      "Aggregate Rating": 4,
      "City": "路易斯维尔"
    },
    {
      "Name": "拉内里什小餐馆",
      "Average Cost": 91,
      "Cuisines": "披萨，意大利语，法国，快餐，咖啡馆，海鲜",
      "Aggregate Rating": 4.6,
      "City": "路易斯维尔"
    }
  ],
  "路易斯维尔的住宿": [
    {
      "NAME": "BK中有浴室和阳台的大房间！",
      "price": 1123,
      "room type": "私人房间",
      "house_rules": "没有聚会",
      "minimum nights": 1,
      "maximum occupancy": 2,
      "review rate number": 4,
      "city": "路易斯维尔"
    },
    {
      "NAME": "美丽的1间卧室，华盛顿高地",
      "price": 69,
      "room type": "私人房间",
      "house_rules": "没有访客",
      "minimum nights": 7,
      "maximum occupancy": 2,
      "review rate number": 2,
      "city": "路易斯维尔"
    },
    {
      "NAME": "舒适的BDRM。阿斯托里亚，皇后区。距曼哈顿10分钟。",
      "price": 1177,
      "room type": "私人房间",
      "house_rules": "没有聚会，没有宠物",
      "minimum nights": 2,
      "maximum occupancy": 1,
      "review rate number": 3,
      "city": "路易斯维尔"
    },
    {
      "NAME": "下东区艺术绿洲",
      "price": 598,
      "room type": "私人房间",
      "house_rules": "没有宠物，没有10岁以下的孩子",
      "minimum nights": 5,
      "maximum occupancy": 2,
      "review rate number": 5,
      "city": "路易斯维尔"
    },
    {
      "NAME": "哈林联排别墅的宽敞房间和私人浴室",
      "price": 805,
      "room type": "私人房间",
      "house_rules": "没有游客，没有聚会，也没有吸烟",
      "minimum nights": 2,
      "maximum occupancy": 1,
      "review rate number": 2,
      "city": "路易斯维尔"
    },
    {
      "NAME": "格林威治村中心的时尚公寓",
      "price": 796,
      "room type": "整个房屋/公寓",
      "house_rules": "没有聚会",
      "minimum nights": 30,
      "maximum occupancy": 6,
      "review rate number": 5,
      "city": "路易斯维尔"
    },
    {
      "NAME": "我的房间/咖啡和百吉饼",
      "price": 815,
      "room type": "私人房间",
      "house_rules": "没有10岁以下的孩子，也没有访客",
      "minimum nights": 6,
      "maximum occupancy": 1,
      "review rate number": 4,
      "city": "路易斯维尔"
    },
    {
      "NAME": "宽敞的2 BR克林顿山公寓公寓 - 布鲁克林，纽约",
      "price": 823,
      "room type": "整个房屋/公寓",
      "house_rules": "没有宠物",
      "minimum nights": 1,
      "maximum occupancy": 6,
      "review rate number": 2,
      "city": "路易斯维尔"
    }
  ],
  "2012-03-12新奥尔良飞往路易斯维尔的航班": "2022-03-12没有从新奥尔良飞往路易斯维尔的航班。",
  "自驾车从新奥尔良到路易斯维尔": "自动驾驶，从新奥尔良到路易斯维尔，持续时间：10小时14分钟，距离：1,136公里，费用：56",
  "从新奥尔良打车到路易斯维尔": "从新奥尔良到路易斯维尔的出租车，持续时间：10小时14分钟，距离：1,136公里，费用：1136",
  "2012-03-14路易斯维尔飞往新奥尔良的航班": "2022-03-14没有从路易斯维尔飞往新奥尔良的航班。",
  "自驾车从路易斯维尔到新奥尔良": "自动驾驶，从路易斯维尔到新奥尔良，持续时间：10小时15分钟，距离：1,139公里，费用：56",
  "从路易斯维尔到新奥尔良的出租车": "从路易斯维尔到新奥尔良的出租车，持续时间：10小时15分钟，距离：1,139公里，费用：1139"
}