{
  "Attractions in Rockford": [
    {
      "Name": "Burpee Museum für Naturgeschichte",
      "Latitude": 42.2773242,
      "Longitude": -89.08814249999999,
      "Address": "737 N Main Street, Rockford, IL 61103, USA",
      "Phone": "(815) 965-3433",
      "Website": "http://www.burpee.org/",
      "City": "Rockford"
    },
    {
      "Name": "Midway Village Museum",
      "Latitude": 42.2804989,
      "Longitude": -88.98463989999999,
      "Address": "6799 Guilford RD, Rockford, IL 61107, USA",
      "Phone": "(815) 397-9112",
      "Website": "https://www.midwayvillage.com/",
      "City": "Rockford"
    },
    {
      "Name": "Discovery Center Museum",
      "Latitude": 42.2771046,
      "Longitude": -89.0894304,
      "Address": "711 n Main Street, Rockford, IL 61103, USA",
      "Phone": "(815) 963-6769",
      "Website": "http://www.discoverycentermuseum.org/",
      "City": "Rockford"
    },
    {
      "Name": "Tinker Swiss Cottage Museum und Gärten",
      "Latitude": 42.26411,
      "Longitude": -89.102796,
      "Address": "411 Kent Street, Rockford, IL 61102, USA",
      "Phone": "(815) 964-2424",
      "Website": "http://www.tinkercottage.com/",
      "City": "Rockford"
    },
    {
      "Name": "Anderson japanische Gärten",
      "Latitude": 42.2900539,
      "Longitude": -89.05779539999999,
      "Address": "318 Spring Creek RD, Rockford, IL 61107, USA",
      "Phone": "(815) 229-9390",
      "Website": "http://andersongardens.org/",
      "City": "Rockford"
    },
    {
      "Name": "Nicholas Conservatory & Gardens",
      "Latitude": 42.28229330000001,
      "Longitude": -89.0707044,
      "Address": "1354 N 2. St., Rockford, IL 61107, USA",
      "Phone": "(815) 987-8858",
      "Website": "http://www.nicholasconservatory.com/",
      "City": "Rockford"
    },
    {
      "Name": "Erlander Home Museum",
      "Latitude": 42.26409779999999,
      "Longitude": -89.08869279999999,
      "Address": "404 S 3. ST, Rockford, IL 61104, USA",
      "Phone": "(815) 963-5559",
      "Website": "http://www.swedishhistorical.org/",
      "City": "Rockford"
    },
    {
      "Name": "Ethnisches Heritage Museum",
      "Latitude": 42.2611002,
      "Longitude": -89.100915,
      "Address": "1129 S Main Street, Rockford, IL 61101, USA",
      "Phone": "(815) 962-7402",
      "Website": "https://www.ethnicheritagemuseum.org/",
      "City": "Rockford"
    },
    {
      "Name": "Assspip Park",
      "Latitude": 42.2827292,
      "Longitude": -89.0641156,
      "Address": "1401 N 2. St., Rockford, IL 61107, USA",
      "Phone": "(815) 987-8858",
      "Website": "http://rockfordparkdistrict.org/ncg",
      "City": "Rockford"
    },
    {
      "Name": "Klebm Arboretum & Botanischer Garten",
      "Latitude": 42.2444523,
      "Longitude": -89.11254020000001,
      "Address": "2715 S Main Street, Rockford, IL 61102, USA",
      "Phone": "(815) 965-8146",
      "Website": "http://www.klehm.org/",
      "City": "Rockford"
    },
    {
      "Name": "Davis Park bei Founders Landing",
      "Latitude": 42.26825019999999,
      "Longitude": -89.0953792,
      "Address": "320 S Wyman St., Rockford, IL 61101, USA",
      "Phone": "(815) 968-5600",
      "Website": "https://www.gorockford.com/Listings/davis-park-at-founders-landing/275/",
      "City": "Rockford"
    },
    {
      "Name": "Frank Lloyd Wrights Laurent House",
      "Latitude": 42.2998334,
      "Longitude": -89.0243617,
      "Address": "4646 Spring Brook RD, Rockford, IL 61114, USA",
      "Phone": "(815) 877-2952",
      "Website": "http://www.laurenthouse.com/",
      "City": "Rockford"
    },
    {
      "Name": "Gärten",
      "Latitude": 42.2840305,
      "Longitude": -89.0679007,
      "Address": "1354 N 2. St., Rockford, IL 61107, USA",
      "Phone": "(815) 987-8858",
      "Website": "https://nicholasconservatory.com/",
      "City": "Rockford"
    },
    {
      "Name": "Riverfront Museum Park",
      "Latitude": 42.2768431,
      "Longitude": -89.0888593,
      "Address": "Ste 3, 711 N Main Street, Rockford, IL 61103, USA",
      "Phone": "(815) 962-0105",
      "Website": "Unbekannt",
      "City": "Rockford"
    },
    {
      "Name": "Searls Park",
      "Latitude": 42.3006848,
      "Longitude": -89.1241445,
      "Address": "4950 Safford Rd, Rockford, IL 61101, USA",
      "Phone": "(815) 987-8800",
      "Website": "http://rockfordparkdistrict.org/",
      "City": "Rockford"
    },
    {
      "Name": "Die Gärten tauchten",
      "Latitude": 42.2936707,
      "Longitude": -89.0346172,
      "Address": "3622 Brookview Rd, Rockford, IL 61107, USA",
      "Phone": "(815) 399-0324",
      "Website": "http://www.lapalomagardens.com/",
      "City": "Rockford"
    },
    {
      "Name": "Rockford Park District",
      "Latitude": 42.268422,
      "Longitude": -89.0972335,
      "Address": "401 S Main Street, Rockford, IL 61101, USA",
      "Phone": "(815) 987-8800",
      "Website": "https://rockfordparkdistrict.org/",
      "City": "Rockford"
    },
    {
      "Name": "Parkteile",
      "Latitude": 42.2740598,
      "Longitude": -89.0227687,
      "Address": "623 N Alpine Rd, Rockford, IL 61107, USA",
      "Phone": "Unbekannt",
      "Website": "https://www.rockfordparkdistrict.org/",
      "City": "Rockford"
    },
    {
      "Name": "Blackhawk Springs Forest Preserve",
      "Latitude": 42.2046939,
      "Longitude": -88.9916363,
      "Address": "5360 Mulford Road &, 5801 Perryville RD, Rockford, IL 61109, USA",
      "Phone": "(815) 877-6100",
      "Website": "http://winnebagoforest.org/preserves/blackhawk-Springs/",
      "City": "Rockford"
    },
    {
      "Name": "Ingersoll Centennial Park",
      "Latitude": 42.2662975,
      "Longitude": -89.09143920000001,
      "Address": "315 S 1. St, Rockford, IL 61104, USA",
      "Phone": "(815) 987-8800",
      "Website": "http://rockfordparkdistrict.org/",
      "City": "Rockford"
    }
  ],
  "Restaurants in Rockford": [
    {
      "Name": "Bambuscoco",
      "Average Cost": 72,
      "Cuisines": "Tee, Französisch, Bäckerei, BBQ, Café",
      "Aggregate Rating": 4.9,
      "City": "Rockford"
    },
    {
      "Name": "Fliegende Mango",
      "Average Cost": 20,
      "Cuisines": "Amerikaner, BBQ, Meeresfrüchte",
      "Aggregate Rating": 4.5,
      "City": "Rockford"
    },
    {
      "Name": "Gajalee Sea Food",
      "Average Cost": 49,
      "Cuisines": "Bäckerei, BBQ",
      "Aggregate Rating": 3.9,
      "City": "Rockford"
    },
    {
      "Name": "Shree Balaji Chaat Bhandar",
      "Average Cost": 97,
      "Cuisines": "Französisch, Bäckerei, BBQ, Italienisch",
      "Aggregate Rating": 3.2,
      "City": "Rockford"
    },
    {
      "Name": "Muss Arabica sein",
      "Average Cost": 43,
      "Cuisines": "Tee, Bäckerei, Inder, Fast Food",
      "Aggregate Rating": 3.5,
      "City": "Rockford"
    },
    {
      "Name": "Café Kaffeetag",
      "Average Cost": 28,
      "Cuisines": "Chinesisch, Desserts, Pizza, Café, Mittelmeerraum",
      "Aggregate Rating": 0,
      "City": "Rockford"
    },
    {
      "Name": "Nutri Punch",
      "Average Cost": 34,
      "Cuisines": "Tee, Chinesisch, Café, Desserts",
      "Aggregate Rating": 4,
      "City": "Rockford"
    },
    {
      "Name": "Cafe Southall",
      "Average Cost": 56,
      "Cuisines": "Meeresfrüchte, Pizza, Café, Fast Food",
      "Aggregate Rating": 4.2,
      "City": "Rockford"
    },
    {
      "Name": "EggSpectation - Jaypee Vasant Continental",
      "Average Cost": 77,
      "Cuisines": "Tee, Mittelmeer, Meeresfrüchte",
      "Aggregate Rating": 3.6,
      "City": "Rockford"
    },
    {
      "Name": "AROMA REST O BAR",
      "Average Cost": 58,
      "Cuisines": "Bäckerei, Fast Food, Chinesisch, Amerikaner, Meeresfrüchte",
      "Aggregate Rating": 3.6,
      "City": "Rockford"
    },
    {
      "Name": "Vorabbäckerei",
      "Average Cost": 100,
      "Cuisines": "Desserts, Pizza, Mexikaner, Bäckerei, Chinesisch, Meeresfrüchte",
      "Aggregate Rating": 2.9,
      "City": "Rockford"
    },
    {
      "Name": "Einen Kuchen wählen",
      "Average Cost": 29,
      "Cuisines": "Cafe, Amerikaner, Mittelmeer, Desserts",
      "Aggregate Rating": 0,
      "City": "Rockford"
    },
    {
      "Name": "Du magst",
      "Average Cost": 32,
      "Cuisines": "Tee, Französisch, Desserts",
      "Aggregate Rating": 0,
      "City": "Rockford"
    },
    {
      "Name": "U -Bahn",
      "Average Cost": 42,
      "Cuisines": "Tee, Chinesisch, Pizza",
      "Aggregate Rating": 3.4,
      "City": "Rockford"
    },
    {
      "Name": "Aggarwal Sweet Center",
      "Average Cost": 81,
      "Cuisines": "Desserts, Tee, Italienisch, Bäckerei, Café",
      "Aggregate Rating": 0,
      "City": "Rockford"
    },
    {
      "Name": "Aggarwal Sweets Center",
      "Average Cost": 73,
      "Cuisines": "Fast Food, Chinesisch, BBQ, Italienisch",
      "Aggregate Rating": 0,
      "City": "Rockford"
    },
    {
      "Name": "Giri Momos Center und chinesisches Fast Food",
      "Average Cost": 44,
      "Cuisines": "Café, Inder, Meeresfrüchte",
      "Aggregate Rating": 2.4,
      "City": "Rockford"
    },
    {
      "Name": "Mr. Condetier - Pride Plaza Hotel",
      "Average Cost": 74,
      "Cuisines": "Bäckerei, Desserts",
      "Aggregate Rating": 0,
      "City": "Rockford"
    },
    {
      "Name": "Sollte sein",
      "Average Cost": 98,
      "Cuisines": "Bäckerei, Desserts, Meeresfrüchte",
      "Aggregate Rating": 0,
      "City": "Rockford"
    },
    {
      "Name": "Hangchuaas chinesische Lebensmittelecke",
      "Average Cost": 64,
      "Cuisines": "Tee, BBQ, Meeresfrüchte",
      "Aggregate Rating": 3.1,
      "City": "Rockford"
    },
    {
      "Name": "GRAPPA - SHANGRI -LA'S - EROS HOTEL",
      "Average Cost": 21,
      "Cuisines": "Bäckerei, Desserts, Italienisch",
      "Aggregate Rating": 3.4,
      "City": "Rockford"
    },
    {
      "Name": "Neues Bhappe von Hatti",
      "Average Cost": 76,
      "Cuisines": "Meeresfrüchte, Mexikaner, BBQ, Fast Food",
      "Aggregate Rating": 0,
      "City": "Rockford"
    },
    {
      "Name": "Dunkin 'Donuts",
      "Average Cost": 24,
      "Cuisines": "Café, Bäckerei, BBQ, Meeresfrüchte",
      "Aggregate Rating": 0,
      "City": "Rockford"
    },
    {
      "Name": "U -Bahn",
      "Average Cost": 26,
      "Cuisines": "Bäckerei, Pizza, BBQ, Desserts",
      "Aggregate Rating": 3.8,
      "City": "Rockford"
    },
    {
      "Name": "Die Gourmet -Hütte",
      "Average Cost": 77,
      "Cuisines": "Tee, Pizza, Inder, Fast Food",
      "Aggregate Rating": 3.3,
      "City": "Rockford"
    },
    {
      "Name": "Mirchievous",
      "Average Cost": 64,
      "Cuisines": "Amerikaner, Indianer, BBQ, Meeresfrüchte",
      "Aggregate Rating": 3.1,
      "City": "Rockford"
    },
    {
      "Name": "Chaophraya",
      "Average Cost": 74,
      "Cuisines": "Chinesisch, Pizza, Café, Desserts",
      "Aggregate Rating": 3.9,
      "City": "Rockford"
    }
  ],
  "Accommodations in Rockford": [
    {
      "NAME": "Geräumige 3BDR Prime Location!",
      "price": 1030,
      "room type": "Ganzes Zuhause/Apt",
      "house_rules": "Rauchen verboten",
      "minimum nights": 2,
      "maximum occupancy": 9,
      "review rate number": 2,
      "city": "Rockford"
    },
    {
      "NAME": "Privatzimmer in einem zwei Schlafzimmer.",
      "price": 210,
      "room type": "Privatzimmer",
      "house_rules": "Keine Besucher und kein Rauchen",
      "minimum nights": 1,
      "maximum occupancy": 2,
      "review rate number": 4,
      "city": "Rockford"
    },
    {
      "NAME": "Private Zimmer und unvergleichliche Lage",
      "price": 1075,
      "room type": "Privatzimmer",
      "house_rules": "Keine Haustiere und keine Partys",
      "minimum nights": 2,
      "maximum occupancy": 2,
      "review rate number": 2,
      "city": "Rockford"
    },
    {
      "NAME": "Park Side Zen Home - Terrace & neben Centralpark",
      "price": 250,
      "room type": "Ganzes Zuhause/Apt",
      "house_rules": "Keine Kinder unter 10 Jahren",
      "minimum nights": 3,
      "maximum occupancy": 3,
      "review rate number": 3,
      "city": "Rockford"
    },
    {
      "NAME": "Lux 2 Schlafzimmer NYC APT am Hudson River!",
      "price": 737,
      "room type": "Ganzes Zuhause/Apt",
      "house_rules": "Rauchen verboten",
      "minimum nights": 30,
      "maximum occupancy": 4,
      "review rate number": 5,
      "city": "Rockford"
    },
    {
      "NAME": "Moderne Wohnung 1 Schlafzimmer in Fordham",
      "price": 377,
      "room type": "Ganzes Zuhause/Apt",
      "house_rules": "Keine Haustiere",
      "minimum nights": 7,
      "maximum occupancy": 2,
      "review rate number": 5,
      "city": "Rockford"
    },
    {
      "NAME": "Privates Schlafzimmer in Bedstuy!",
      "price": 1107,
      "room type": "Privatzimmer",
      "house_rules": "Rauchen verboten",
      "minimum nights": 10,
      "maximum occupancy": 1,
      "review rate number": 4,
      "city": "Rockford"
    },
    {
      "NAME": "Reines luxuriöses One Bdrm + Sofa Bett im Central Park",
      "price": 243,
      "room type": "Ganzes Zuhause/Apt",
      "house_rules": "Kein Rauchen und keine Partys",
      "minimum nights": 2,
      "maximum occupancy": 3,
      "review rate number": 3,
      "city": "Rockford"
    },
    {
      "NAME": "Charmantes Studio im Herzen von Astoria",
      "price": 519,
      "room type": "Ganzes Zuhause/Apt",
      "house_rules": "Keine Parteien",
      "minimum nights": 4,
      "maximum occupancy": 4,
      "review rate number": 4,
      "city": "Rockford"
    },
    {
      "NAME": "Das Herz von Brooklyn",
      "price": 154,
      "room type": "Ganzes Zuhause/Apt",
      "house_rules": "Keine Kinder unter 10 und keine Besucher und keine Haustiere",
      "minimum nights": 30,
      "maximum occupancy": 3,
      "review rate number": 2,
      "city": "Rockford"
    },
    {
      "NAME": "Privates stuyvesantes Schlafzimmer Madison 1R-2",
      "price": 395,
      "room type": "Privatzimmer",
      "house_rules": "Keine Parteien & keine Kinder unter 10 Jahren",
      "minimum nights": 30,
      "maximum occupancy": 2,
      "review rate number": 3,
      "city": "Rockford"
    },
    {
      "NAME": "Sonniges großes Schlafzimmer in lebhafter Nachbarschaft in Brooklyn",
      "price": 440,
      "room type": "Privatzimmer",
      "house_rules": "Keine Haustiere und kein Rauchen",
      "minimum nights": 14,
      "maximum occupancy": 2,
      "review rate number": 3,
      "city": "Rockford"
    },
    {
      "NAME": "Midtown 2 Bett Vereinte Nationen Loc, volle Küche",
      "price": 245,
      "room type": "Ganzes Zuhause/Apt",
      "house_rules": "Keine Besucher",
      "minimum nights": 3,
      "maximum occupancy": 3,
      "review rate number": 4,
      "city": "Rockford"
    }
  ],
  "Flight from St. Petersburg to Rockford on 2022-03-16": [
    {
      "Flight Number": "F3573659",
      "Price": 474,
      "DepTime": "15:40",
      "ArrTime": "17:04",
      "ActualElapsedTime": "2 Stunden 24 Minuten",
      "FlightDate": "2022-03-16",
      "OriginCityName": "St. Petersburg",
      "DestCityName": "Rockford",
      "Distance": 1049
    }
  ],
  "Self-driving from St. Petersburg to Rockford": "Keine gültigen Informationen.",
  "Taxi from St. Petersburg to Rockford": "Keine gültigen Informationen.",
  "Flight from Rockford to St. Petersburg on 2022-03-18": [
    {
      "Flight Number": "F3573120",
      "Price": 346,
      "DepTime": "19:00",
      "ArrTime": "22:43",
      "ActualElapsedTime": "2 Stunden 43 Minuten",
      "FlightDate": "2022-03-18",
      "OriginCityName": "Rockford",
      "DestCityName": "St. Petersburg",
      "Distance": 1049
    }
  ],
  "Self-driving from Rockford to St. Petersburg": "Keine gültigen Informationen.",
  "Taxi from Rockford to St. Petersburg": "Keine gültigen Informationen.",
  "Attractions in Pensacola": [
    {
      "Name": "Historisches Pensacola -Dorf",
      "Latitude": 30.40874519999999,
      "Longitude": -87.2130784,
      "Address": "205 E Zaragoza ST, Pensacola, FL 32502, USA",
      "Phone": "(850) 595-5993",
      "Website": "http://www.historicpensacola.org/",
      "City": "Pensacola"
    },
    {
      "Name": "Pensacola Museum of Art",
      "Latitude": 30.4079585,
      "Longitude": -87.213443,
      "Address": "407 S Jefferson ST, Pensacola, FL 32502, USA",
      "Phone": "(850) 432-6247",
      "Website": "http://www.pensacolamuseum.org/",
      "City": "Pensacola"
    },
    {
      "Name": "Palafox Street in der Innenstadt von Pensacola",
      "Latitude": 30.4156547,
      "Longitude": -87.2158627,
      "Address": "200 n Palafox ST, Pensacola, FL 32502, USA",
      "Phone": "Unbekannt",
      "Website": "http://visitpensacola.com/",
      "City": "Pensacola"
    },
    {
      "Name": "Denkmalgedenklichkeit Luna Plaza",
      "Latitude": 30.402506,
      "Longitude": -87.2130128,
      "Address": "900 mit Palafox Street, Pensacola, FL 32502, USA",
      "Phone": "(850) 436-5670",
      "Website": "https://www.cityofpensacola.com/facities/facility/details/plazadeluna-75",
      "City": "Pensacola"
    },
    {
      "Name": "Die Graffitibrücke",
      "Latitude": 30.420402,
      "Longitude": -87.193888,
      "Address": "N 17th Ave, Pensacola, FL 32502, USA",
      "Phone": "(850) 361-9306",
      "Website": "http://thegraffitibridge.com/",
      "City": "Pensacola"
    },
    {
      "Name": "Pensacola Kindermuseum",
      "Latitude": 30.408296,
      "Longitude": -87.2127429,
      "Address": "115 Zaragoza ST, Pensacola, FL 32502, USA",
      "Phone": "(850) 595-1559",
      "Website": "http://www.historicpensacola.org/plan-your-vit/museums-properties/pensacola-childrens-museum/",
      "City": "Pensacola"
    },
    {
      "Name": "Geh retro",
      "Latitude": 30.4196742,
      "Longitude": -87.21960759999999,
      "Address": "610 N Spring St., Pensacola, FL 32501, USA",
      "Phone": "(850) 466-5220",
      "Website": "http://www.goretro.us/",
      "City": "Pensacola"
    },
    {
      "Name": "Handelsmuseum",
      "Latitude": 30.4085519,
      "Longitude": -87.21147859999999,
      "Address": "201 Zaragoza ST, Pensacola, FL 32502, USA",
      "Phone": "(850) 595-5985",
      "Website": "https://historicpensacola.org/Plan-your-visit/museums-properties/museum-of-commerce/",
      "City": "Pensacola"
    },
    {
      "Name": "Das Quina House Museum",
      "Latitude": 30.41104139999999,
      "Longitude": -87.2093412,
      "Address": "204 S Alcaniz ST, Pensacola, FL 32502, USA",
      "Phone": "(850) 432-3050",
      "Website": "https://pensacolahistoricPreservationsociety.com/quinahouse",
      "City": "Pensacola"
    },
    {
      "Name": "Bay Bluffs Park",
      "Latitude": 30.45511870000001,
      "Longitude": -87.1684993,
      "Address": "3400 Scenic Hwy, Pensacola, FL 32503, USA",
      "Phone": "(850) 435-1603",
      "Website": "http://cityofpensacola.com/facities/facility/details/bay-bluffs-spreeserve-18",
      "City": "Pensacola"
    },
    {
      "Name": "Pensacola Mess Hall",
      "Latitude": 30.418049,
      "Longitude": -87.210194,
      "Address": "418 E Wright St., Pensacola, FL 32502, USA",
      "Phone": "(877) 937-6377",
      "Website": "http://www.pensacolamesshall.org/",
      "City": "Pensacola"
    },
    {
      "Name": "Pensacola Bay City Ferry",
      "Latitude": 30.405077,
      "Longitude": -87.2121877,
      "Address": "750 Commendencia ST, Pensacola, FL 32502, USA",
      "Phone": "(850) 466-3379",
      "Website": "https://www.pensacolabaycityferry.com/",
      "City": "Pensacola"
    },
    {
      "Name": "Branchenmuseum",
      "Latitude": 30.4089578,
      "Longitude": -87.2115541,
      "Address": "200 Zaragoza ST, Pensacola, FL 32502, USA",
      "Phone": "(850) 595-5985",
      "Website": "http://historicpensacola.org/Plan-your-visit/museums-properties/museumof-industry/",
      "City": "Pensacola"
    },
    {
      "Name": "Pensacola",
      "Latitude": 30.42130899999999,
      "Longitude": -87.2169149,
      "Address": "Pensacola, FL 32501, USA",
      "Phone": "Unbekannt",
      "Website": "https://www.visitpensacola.com/",
      "City": "Pensacola"
    },
    {
      "Name": "Pensacola Lighthouse & Maritime Museum",
      "Latitude": 30.3460366,
      "Longitude": -87.3080825,
      "Address": "2081 Radford Blvd, Pensacola, FL 32508, USA",
      "Phone": "(850) 393-1561",
      "Website": "http://www.pensacolalighthouse.org/",
      "City": "Pensacola"
    },
    {
      "Name": "Splash City Adventures",
      "Latitude": 30.4880556,
      "Longitude": -87.2616667,
      "Address": "6709 Pensacola Blvd, Pensacola, FL 32505, USA",
      "Phone": "(850) 505-0800",
      "Website": "http://splashcityAdventure.com/",
      "City": "Pensacola"
    },
    {
      "Name": "Pensacola Aviation Discovery Park",
      "Latitude": 30.4715774,
      "Longitude": -87.18137349999999,
      "Address": "4200 Jerry L Maygarden Rd, Pensacola, FL 32504, USA",
      "Phone": "Unbekannt",
      "Website": "Unbekannt",
      "City": "Pensacola"
    },
    {
      "Name": "Sevilla Square",
      "Latitude": 30.4094849,
      "Longitude": -87.2097321,
      "Address": "311 E Government ST, Pensacola, FL 32502, USA",
      "Phone": "(850) 436-5670",
      "Website": "http://www.ci.pensacola.fl.us/",
      "City": "Pensacola"
    },
    {
      "Name": "Die Zwillingsbluffs",
      "Latitude": 30.4597979,
      "Longitude": -87.164964,
      "Address": "3700 Scenic Hwy, Pensacola, FL 32504, USA",
      "Phone": "Unbekannt",
      "Website": "Unbekannt",
      "City": "Pensacola"
    },
    {
      "Name": "Fort Pickens",
      "Latitude": 30.327303,
      "Longitude": -87.290514,
      "Address": "1400 Fort Pickens Rd, Pensacola Beach, FL 32561, USA",
      "Phone": "Unbekannt",
      "Website": "https://www.nps.gov/guis/Planyourvisit/fort-pickens-rea.htm",
      "City": "Pensacola"
    }
  ],
  "Restaurants in Pensacola": [
    {
      "Name": "Frog Hollow Tavern",
      "Average Cost": 20,
      "Cuisines": "Amerikaner, BBQ, Fast Food, Cafe, Inder",
      "Aggregate Rating": 4.3,
      "City": "Pensacola"
    },
    {
      "Name": "Berry Patch Restaurant",
      "Average Cost": 13,
      "Cuisines": "Bäckerei, BBQ, Desserts, Meeresfrüchte",
      "Aggregate Rating": 4.3,
      "City": "Pensacola"
    },
    {
      "Name": "Bailey's Bar-B-Who",
      "Average Cost": 13,
      "Cuisines": "Tee, Bäckerei, Mittelmeer",
      "Aggregate Rating": 4.1,
      "City": "Pensacola"
    },
    {
      "Name": "Wasserscheide Cafe",
      "Average Cost": 12,
      "Cuisines": "Chinesisch, BBQ, Desserts",
      "Aggregate Rating": 3.7,
      "City": "Pensacola"
    },
    {
      "Name": "Blauer Punktgrill",
      "Average Cost": 75,
      "Cuisines": "Französisch, Inder, Café, Desserts",
      "Aggregate Rating": 4,
      "City": "Pensacola"
    },
    {
      "Name": "Chicago Pizza",
      "Average Cost": 32,
      "Cuisines": "Pizza, Mittelmeer, Fast Food",
      "Aggregate Rating": 2.7,
      "City": "Pensacola"
    },
    {
      "Name": "Phantom",
      "Average Cost": 94,
      "Cuisines": "Desserts, Pizza, Café, Mittelmeer, Meeresfrüchte",
      "Aggregate Rating": 3.5,
      "City": "Pensacola"
    },
    {
      "Name": "Fruchtpro",
      "Average Cost": 95,
      "Cuisines": "Tee, Café, Pizza, Desserts",
      "Aggregate Rating": 0,
      "City": "Pensacola"
    },
    {
      "Name": "Kwality Restaurant",
      "Average Cost": 29,
      "Cuisines": "Desserts, Tee, Französisch, Fast Food, Chinesisch",
      "Aggregate Rating": 0,
      "City": "Pensacola"
    },
    {
      "Name": "Nukkad",
      "Average Cost": 100,
      "Cuisines": "Tee, Café, Amerikaner, Italienisch",
      "Aggregate Rating": 3.6,
      "City": "Pensacola"
    },
    {
      "Name": "Keventers südindisches und chinesisches Essen",
      "Average Cost": 32,
      "Cuisines": "BBQ, Fast Food",
      "Aggregate Rating": 2.8,
      "City": "Pensacola"
    },
    {
      "Name": "Jain Kaffeehaus",
      "Average Cost": 41,
      "Cuisines": "Cafe, Inder, Mittelmeer, Grill",
      "Aggregate Rating": 4.1,
      "City": "Pensacola"
    },
    {
      "Name": "Nizams Kathi Kabab",
      "Average Cost": 32,
      "Cuisines": "Desserts, Grill, Fast Food, Amerikaner, Mittelmeerraum",
      "Aggregate Rating": 3.8,
      "City": "Pensacola"
    },
    {
      "Name": "Kalpana Restaurant",
      "Average Cost": 36,
      "Cuisines": "Tee, Café, Bäckerei, Amerikaner",
      "Aggregate Rating": 3.2,
      "City": "Pensacola"
    },
    {
      "Name": "Eierspektation - Jaypee Siddharth",
      "Average Cost": 25,
      "Cuisines": "Cafe, BBQ, Italienisch",
      "Aggregate Rating": 3.5,
      "City": "Pensacola"
    },
    {
      "Name": "Sigot",
      "Average Cost": 66,
      "Cuisines": "Chinesisch, Bäckerei, Meeresfrüchte",
      "Aggregate Rating": 3.1,
      "City": "Pensacola"
    },
    {
      "Name": "Der Mitternachtszentrum - C.",
      "Average Cost": 32,
      "Cuisines": "Tee, Pizza, Bäckerei, BBQ, Chinesisch",
      "Aggregate Rating": 2.6,
      "City": "Pensacola"
    },
    {
      "Name": "Shama Muradabadi",
      "Average Cost": 93,
      "Cuisines": "Desserts, Inder, BBQ",
      "Aggregate Rating": 0,
      "City": "Pensacola"
    },
    {
      "Name": "Paapi Paet",
      "Average Cost": 96,
      "Cuisines": "Café, Mittelmeer, Fast Food",
      "Aggregate Rating": 3.3,
      "City": "Pensacola"
    },
    {
      "Name": "Jyoti Dhaba",
      "Average Cost": 11,
      "Cuisines": "Tee, Bäckerei, Fast Food",
      "Aggregate Rating": 0,
      "City": "Pensacola"
    },
    {
      "Name": "Shree Vinayaga Restaurant",
      "Average Cost": 55,
      "Cuisines": "Desserts, Tee, Pizza, Französisch, Café",
      "Aggregate Rating": 0,
      "City": "Pensacola"
    },
    {
      "Name": "Prem chinesisches Fast Food",
      "Average Cost": 89,
      "Cuisines": "Tee, Bäckerei, Mittelmeer, Desserts",
      "Aggregate Rating": 0,
      "City": "Pensacola"
    },
    {
      "Name": "Frisches Fleisch co",
      "Average Cost": 82,
      "Cuisines": "Französisch, Meeresfrüchte, Desserts, Italienisch",
      "Aggregate Rating": 0,
      "City": "Pensacola"
    },
    {
      "Name": "Köder",
      "Average Cost": 56,
      "Cuisines": "Mexikaner, BBQ, Desserts",
      "Aggregate Rating": 0,
      "City": "Pensacola"
    },
    {
      "Name": "Shree Balaji Bhojnalaya",
      "Average Cost": 93,
      "Cuisines": "Fast Food, Meeresfrüchte, Mexikaner, Italienisch",
      "Aggregate Rating": 0,
      "City": "Pensacola"
    },
    {
      "Name": "Krispy Küche",
      "Average Cost": 78,
      "Cuisines": "Fast Food, Bäckerei, Desserts, Italienisch",
      "Aggregate Rating": 0,
      "City": "Pensacola"
    },
    {
      "Name": "Nur Gemüse",
      "Average Cost": 59,
      "Cuisines": "Café, Desserts, Fast Food",
      "Aggregate Rating": 0,
      "City": "Pensacola"
    },
    {
      "Name": "Code",
      "Average Cost": 29,
      "Cuisines": "Französisch, Bäckerei, Inder, Fast Food",
      "Aggregate Rating": 2.5,
      "City": "Pensacola"
    },
    {
      "Name": "Satguru Tiffin Service",
      "Average Cost": 50,
      "Cuisines": "Amerikaner, BBQ, Meeresfrüchte",
      "Aggregate Rating": 0,
      "City": "Pensacola"
    },
    {
      "Name": "Kayasth -Küche",
      "Average Cost": 69,
      "Cuisines": "Desserts, Cafe, Grill, Fast Food, Chinesisch, Amerikaner",
      "Aggregate Rating": 0,
      "City": "Pensacola"
    },
    {
      "Name": "Südindische Hütte",
      "Average Cost": 48,
      "Cuisines": "Tee, Meeresfrüchte, Fast Food",
      "Aggregate Rating": 3.4,
      "City": "Pensacola"
    },
    {
      "Name": "Saleems Imbiss",
      "Average Cost": 37,
      "Cuisines": "Chinesisch, Desserts, Fast Food, Café, Meeresfrüchte",
      "Aggregate Rating": 2.6,
      "City": "Pensacola"
    },
    {
      "Name": "Hunger's Hub",
      "Average Cost": 76,
      "Cuisines": "Fast Food, Inder, BBQ, Meeresfrüchte",
      "Aggregate Rating": 0,
      "City": "Pensacola"
    },
    {
      "Name": "Swad E Punjab",
      "Average Cost": 80,
      "Cuisines": "Pizza, Bäckerei, Café, Amerikaner, Meeresfrüchte",
      "Aggregate Rating": 0,
      "City": "Pensacola"
    },
    {
      "Name": "Mithaas Süßigkeiten",
      "Average Cost": 86,
      "Cuisines": "Pizza, Bäckerei, BBQ, Cafe, Inder, Mittelmeerraum",
      "Aggregate Rating": 3.1,
      "City": "Pensacola"
    },
    {
      "Name": "Das belgische Biercafé Brunnen",
      "Average Cost": 89,
      "Cuisines": "Amerikaner, BBQ, Fast Food",
      "Aggregate Rating": 2.3,
      "City": "Pensacola"
    },
    {
      "Name": "Oktober Burger",
      "Average Cost": 33,
      "Cuisines": "Pizza, Desserts, Fast Food",
      "Aggregate Rating": 4.5,
      "City": "Pensacola"
    },
    {
      "Name": "Gaga -Schlauch",
      "Average Cost": 17,
      "Cuisines": "Tee, Desserts, Pizza, BBQ",
      "Aggregate Rating": 4.9,
      "City": "Pensacola"
    }
  ],
  "Accommodations in Pensacola": [
    {
      "NAME": "Charmante Ein -Schlafzimmer -Apt in Les/Chinatown",
      "price": 430,
      "room type": "Ganzes Zuhause/Apt",
      "house_rules": "Keine Parteien & keine Kinder unter 10 Jahren",
      "minimum nights": 4,
      "maximum occupancy": 4,
      "review rate number": 1,
      "city": "Pensacola"
    },
    {
      "NAME": "Luxus East Village Penthouse mit privatem Deck",
      "price": 697,
      "room type": "Ganzes Zuhause/Apt",
      "house_rules": "Keine Besucher",
      "minimum nights": 2,
      "maximum occupancy": 6,
      "review rate number": 3,
      "city": "Pensacola"
    },
    {
      "NAME": "Erstaunliche Wohnung in der Nähe von Museum, Gardens & Park!",
      "price": 74,
      "room type": "Ganzes Zuhause/Apt",
      "house_rules": "Keine Parteien",
      "minimum nights": 17,
      "maximum occupancy": 3,
      "review rate number": 5,
      "city": "Pensacola"
    },
    {
      "NAME": "Gemütliche Wohnung mit 1 Schlafzimmer 2 Blocks von der U-Bahn entfernt",
      "price": 339,
      "room type": "Ganzes Zuhause/Apt",
      "house_rules": "Keine Parteien",
      "minimum nights": 2,
      "maximum occupancy": 3,
      "review rate number": 4,
      "city": "Pensacola"
    },
    {
      "NAME": "Erstaunliche 2BR Apartment Elev/Wäsche!",
      "price": 56,
      "room type": "Ganzes Zuhause/Apt",
      "house_rules": "Keine Parteien & keine Kinder unter 10 Jahren und keine Haustiere",
      "minimum nights": 30,
      "maximum occupancy": 2,
      "review rate number": 4,
      "city": "Pensacola"
    },
    {
      "NAME": "Chic Historic Harlem Brownstone",
      "price": 526,
      "room type": "Ganzes Zuhause/Apt",
      "house_rules": "Rauchen verboten",
      "minimum nights": 3,
      "maximum occupancy": 2,
      "review rate number": 4,
      "city": "Pensacola"
    },
    {
      "NAME": "Sauberes und gemütliches Zimmer in Brooklyn in künstlerischer Wohnung",
      "price": 514,
      "room type": "Privatzimmer",
      "house_rules": "Keine Haustiere",
      "minimum nights": 1,
      "maximum occupancy": 1,
      "review rate number": 3,
      "city": "Pensacola"
    },
    {
      "NAME": "Empire State Building Apartment",
      "price": 662,
      "room type": "Ganzes Zuhause/Apt",
      "house_rules": "Kein Rauchen und keine Besucher",
      "minimum nights": 7,
      "maximum occupancy": 2,
      "review rate number": 5,
      "city": "Pensacola"
    },
    {
      "NAME": "1d Private RM in Guesthouse Manhattan",
      "price": 378,
      "room type": "Privatzimmer",
      "house_rules": "Keine Besucher und keine Partys",
      "minimum nights": 1,
      "maximum occupancy": 1,
      "review rate number": 3,
      "city": "Pensacola"
    },
    {
      "NAME": "Stilvoller und gemütlicher Apartment 2 Schlafzimmer 2 Schlafzimmer",
      "price": 1036,
      "room type": "Ganzes Zuhause/Apt",
      "house_rules": "Keine Parteien",
      "minimum nights": 1,
      "maximum occupancy": 5,
      "review rate number": 4,
      "city": "Pensacola"
    },
    {
      "NAME": "Bequemes Zimmer",
      "price": 92,
      "room type": "Privatzimmer",
      "house_rules": "Keine Partys und kein Rauchen und keine Haustiere",
      "minimum nights": 4,
      "maximum occupancy": 1,
      "review rate number": 2,
      "city": "Pensacola"
    },
    {
      "NAME": "Geräumige 1BR Haven in Duplex mit Deck",
      "price": 1050,
      "room type": "Privatzimmer",
      "house_rules": "Keine Parteien",
      "minimum nights": 7,
      "maximum occupancy": 2,
      "review rate number": 2,
      "city": "Pensacola"
    }
  ],
  "Flight from Kansas City to Pensacola on 2022-03-27": "Es gibt keinen Flug von Kansas City nach Pensacola am 2022-03-27.",
  "Self-driving from Kansas City to Pensacola": "Selbstfahrer, von Kansas City bis Pensacola, Dauer: 14 Stunden 4 Minuten, Entfernung: 1.433 km, Kosten: 71",
  "Taxi from Kansas City to Pensacola": "Taxi, von Kansas City bis Pensacola, Dauer: 14 Stunden 4 Minuten, Entfernung: 1.433 km, Kosten: 1433",
  "Flight from Pensacola to Kansas City on 2022-03-29": "Es gibt keinen Flug von Pensacola nach Kansas City am 2022-03-29.",
  "Self-driving from Pensacola to Kansas City": "Selbstfahrende, von Pensacola nach Kansas City, Dauer: 14 Stunden 0 Minuten, Entfernung: 1.447 km, Kosten: 72",
  "Taxi from Pensacola to Kansas City": "Taxi, von Pensacola nach Kansas City, Dauer: 14 Stunden 0 Minuten, Entfernung: 1.447 km, Kosten: 1447",
  "Attractions in Stockton": [
    {
      "Name": "Kindermuseum, Stockton",
      "Latitude": 37.9519756,
      "Longitude": -121.2967856,
      "Address": "402 W Weber Ave, Stockton, CA 95203, USA",
      "Phone": "(209) 465-4386",
      "Website": "https://www.childrensmuseumstockton.org/",
      "City": "Stockton"
    },
    {
      "Name": "Haggin Museum",
      "Latitude": 37.9605722,
      "Longitude": -121.3138609,
      "Address": "1201 n Pershing Ave, Stockton, CA 95203, USA",
      "Phone": "(209) 940-6300",
      "Website": "http://www.hagginmuseum.org/",
      "City": "Stockton"
    },
    {
      "Name": "Louis Park",
      "Latitude": 37.9558644,
      "Longitude": -121.3464878,
      "Address": "3121 Monte Diablo Ave, Stockton, CA 95203, USA",
      "Phone": "(209) 937-8206",
      "Website": "http://www.stocktongov.com/",
      "City": "Stockton"
    },
    {
      "Name": "Stockton Water Tower",
      "Latitude": 37.956838,
      "Longitude": -121.3185108,
      "Address": "811 Buena Vista Ave, Stockton, CA 95203, USA",
      "Phone": "Unbekannt",
      "Website": "Unbekannt",
      "City": "Stockton"
    },
    {
      "Name": "Miracle Mile",
      "Latitude": 37.9717771,
      "Longitude": -121.30132,
      "Address": "221 Tuxedo CT, Stockton, CA 95204, USA",
      "Phone": "(209) 623-1144",
      "Website": "http://www.stocktonmiraclemile.com/",
      "City": "Stockton"
    },
    {
      "Name": "Buckley Cove Park",
      "Latitude": 37.9748014,
      "Longitude": -121.3756927,
      "Address": "Buckley Cove Way, Stockton, CA 95219, USA",
      "Phone": "(209) 937-8539",
      "Website": "Unbekannt",
      "City": "Stockton"
    },
    {
      "Name": "Wat Dhammararam Buddhistischer Tempel",
      "Latitude": 37.9243986,
      "Longitude": -121.2251909,
      "Address": "3732 Carpenter Rd, Stockton, CA 95215, USA",
      "Phone": "(209) 943-2883",
      "Website": "http://www.watdhammaramambuddhist.org",
      "City": "Stockton"
    },
    {
      "Name": "Joan Darrah Promenade",
      "Latitude": 37.95318710000001,
      "Longitude": -121.2931709,
      "Address": "W Weber Ave, Stockton, CA 95202, USA",
      "Phone": "Unbekannt",
      "Website": "Unbekannt",
      "City": "Stockton"
    },
    {
      "Name": "Stockton Diamond Railroad Crossing",
      "Latitude": 37.9467542,
      "Longitude": -121.2758804,
      "Address": "796 S Sacramento St, Stockton, CA 95205, USA",
      "Phone": "Unbekannt",
      "Website": "Unbekannt",
      "City": "Stockton"
    },
    {
      "Name": "American Legion Park",
      "Latitude": 37.9680472,
      "Longitude": -121.3080513,
      "Address": "Stockton, CA 95204, USA",
      "Phone": "(209) 937-8206",
      "Website": "http://www.stocktongov.com/services/parkrec/default.html",
      "City": "Stockton"
    },
    {
      "Name": "Mexikanisches Heritage Center & Galerie",
      "Latitude": 37.9522222,
      "Longitude": -121.2858333,
      "Address": "111 S Sutter St, Stockton, CA 95206, USA",
      "Phone": "(209) 969-9306",
      "Website": "http://www.mexicanheritagecenter.org/",
      "City": "Stockton"
    },
    {
      "Name": "Besuchen Sie Stockton",
      "Latitude": 37.9528632,
      "Longitude": -121.2937217,
      "Address": "146 W Weber Ave, Stockton, CA 95202, USA",
      "Phone": "(209) 938-1555",
      "Website": "http://www.visitstockton.org/",
      "City": "Stockton"
    },
    {
      "Name": "Upper Stockton Diamond Railroad Crossing",
      "Latitude": 37.96859329999999,
      "Longitude": -121.2693805,
      "Address": "Stockton, CA 95205, USA",
      "Phone": "Unbekannt",
      "Website": "Unbekannt",
      "City": "Stockton"
    },
    {
      "Name": "Stockton Field Aviation Museum",
      "Latitude": 37.8907085,
      "Longitude": -121.2427084,
      "Address": "7430 C e Dixon St., Stockton, CA 95206, USA",
      "Phone": "(209) 982-0273",
      "Website": "http://www.stocktonfieldmuseum.org/",
      "City": "Stockton"
    },
    {
      "Name": "Sousa Park",
      "Latitude": 37.9576352,
      "Longitude": -121.2487092,
      "Address": "2829 Yellowstone Ave, Stockton, CA 95205, USA",
      "Phone": "(209) 937-8206",
      "Website": "http://www.stocktongov.com/government/departments/publicworks/contactus.html",
      "City": "Stockton"
    },
    {
      "Name": "Stockton Arena",
      "Latitude": 37.9561651,
      "Longitude": -121.2960735,
      "Address": "248 W Fremont St., Stockton, CA 95203, USA",
      "Phone": "(209) 373-1400",
      "Website": "http://stocktonlive.com/",
      "City": "Stockton"
    },
    {
      "Name": "Shumway Oak Grove Regional Park",
      "Latitude": 38.0574996,
      "Longitude": -121.3638536,
      "Address": "4520 W acht Mile Rd, Stockton, CA 95209, USA",
      "Phone": "(209) 953-8800",
      "Website": "http://www.sjparks.com/parks/oak-- manregional-park.aspx",
      "City": "Stockton"
    },
    {
      "Name": "Garrigan Park",
      "Latitude": 38.04405,
      "Longitude": -121.36532,
      "Address": "3690 Iron Canyon Cir, Stockton, CA 95209, USA",
      "Phone": "(209) 937-8411",
      "Website": "http://www.stocktongov.com/government/departments/publicworks/contactus.html",
      "City": "Stockton"
    },
    {
      "Name": "Gibbons Park",
      "Latitude": 38.0218141,
      "Longitude": -121.3371861,
      "Address": "Stockton, CA 95209, USA",
      "Phone": "Unbekannt",
      "Website": "Unbekannt",
      "City": "Stockton"
    },
    {
      "Name": "Filipino American National Historical Society Museum",
      "Latitude": 37.9545233,
      "Longitude": -121.2865715,
      "Address": "337 E Weber Ave, Stockton, CA 95202, USA",
      "Phone": "(209) 932-9037",
      "Website": "http://fanhsmuseum.com/",
      "City": "Stockton"
    }
  ],
  "Restaurants in Stockton": [
    {
      "Name": "Choo Choo Eastside",
      "Average Cost": 40,
      "Cuisines": "Tee, Chinesisch, Bäckerei",
      "Aggregate Rating": 3.9,
      "City": "Stockton"
    },
    {
      "Name": "Biaggis italienisches Restaurant",
      "Average Cost": 20,
      "Cuisines": "Französisch, Bäckerei, Café, Meeresfrüchte",
      "Aggregate Rating": 4.1,
      "City": "Stockton"
    },
    {
      "Name": "Sushi -Familie",
      "Average Cost": 72,
      "Cuisines": "Bäckerei, Pizza, Café",
      "Aggregate Rating": 3.6,
      "City": "Stockton"
    },
    {
      "Name": "Vierundzwanzig sieben",
      "Average Cost": 92,
      "Cuisines": "Desserts, Tee, Italienisch, BBQ, Fast Food, Amerikaner",
      "Aggregate Rating": 3.4,
      "City": "Stockton"
    },
    {
      "Name": "Zwillingsbrüder",
      "Average Cost": 32,
      "Cuisines": "Tee, Pizza, Französisch, Bäckerei, Meeresfrüchte",
      "Aggregate Rating": 0,
      "City": "Stockton"
    },
    {
      "Name": "Dimse & Co.",
      "Average Cost": 40,
      "Cuisines": "Chinesisch, Bäckerei, BBQ, Meeresfrüchte",
      "Aggregate Rating": 3.9,
      "City": "Stockton"
    },
    {
      "Name": "Mechanische Pizza",
      "Average Cost": 47,
      "Cuisines": "Pizza, BBQ, Mittelmeer",
      "Aggregate Rating": 3.5,
      "City": "Stockton"
    },
    {
      "Name": "Barista",
      "Average Cost": 77,
      "Cuisines": "Café, Mexikaner, Bäckerei, Meeresfrüchte",
      "Aggregate Rating": 0,
      "City": "Stockton"
    },
    {
      "Name": "Hotel Radhakrishna",
      "Average Cost": 63,
      "Cuisines": "Desserts, Italienisch, Bäckerei, Fast Food, Meeresfrüchte",
      "Aggregate Rating": 3.5,
      "City": "Stockton"
    },
    {
      "Name": "High Street Kitchen & Bar",
      "Average Cost": 100,
      "Cuisines": "Desserts, Tee, Mexikaner, Grill, Fast Food, Mittelmeerraum",
      "Aggregate Rating": 2.9,
      "City": "Stockton"
    },
    {
      "Name": "Muffins",
      "Average Cost": 26,
      "Cuisines": "Meeresfrüchte, Desserts, Italienisch",
      "Aggregate Rating": 3.5,
      "City": "Stockton"
    },
    {
      "Name": "Festland China",
      "Average Cost": 38,
      "Cuisines": "Tee, BBQ, Mittelmeer",
      "Aggregate Rating": 3.7,
      "City": "Stockton"
    },
    {
      "Name": "Ovenstory -Pizza",
      "Average Cost": 81,
      "Cuisines": "Bäckerei, Amerikaner, Fast Food",
      "Aggregate Rating": 3.3,
      "City": "Stockton"
    },
    {
      "Name": "Aggarwal Sweet Corner & Restaurant",
      "Average Cost": 33,
      "Cuisines": "Tee, Meeresfrüchte, Pizza, Italienisch",
      "Aggregate Rating": 2.6,
      "City": "Stockton"
    },
    {
      "Name": "Schnelle Kreuzung brechen",
      "Average Cost": 46,
      "Cuisines": "Fast Food, Pizza, Bäckerei, Italienisch",
      "Aggregate Rating": 0,
      "City": "Stockton"
    },
    {
      "Name": "Finger lelzen",
      "Average Cost": 50,
      "Cuisines": "Desserts, Tee, Pizza, Italienisch, Café",
      "Aggregate Rating": 3.4,
      "City": "Stockton"
    },
    {
      "Name": "Gemüse Adda",
      "Average Cost": 85,
      "Cuisines": "Desserts, Amerikaner, BBQ, Fast Food",
      "Aggregate Rating": 3.4,
      "City": "Stockton"
    },
    {
      "Name": "Das goldene Blatt",
      "Average Cost": 34,
      "Cuisines": "Tee, Französisch, Chinesisch, Fast Food",
      "Aggregate Rating": 3,
      "City": "Stockton"
    },
    {
      "Name": "Der blaue Tandoor",
      "Average Cost": 16,
      "Cuisines": "Café, Amerikaner, Meeresfrüchte",
      "Aggregate Rating": 2.6,
      "City": "Stockton"
    },
    {
      "Name": "Aayush Food Plaza",
      "Average Cost": 70,
      "Cuisines": "Tee, Französisch, Pizza, Italienisch",
      "Aggregate Rating": 2.9,
      "City": "Stockton"
    },
    {
      "Name": "Nand Bhai Chholey Bhature",
      "Average Cost": 33,
      "Cuisines": "Tee, Bäckerei, Grill, Amerikaner, Meeresfrüchte",
      "Aggregate Rating": 0,
      "City": "Stockton"
    },
    {
      "Name": "Punjabis Esszentrum",
      "Average Cost": 45,
      "Cuisines": "Tee, Chinesisch, Bäckerei, Desserts",
      "Aggregate Rating": 3.3,
      "City": "Stockton"
    },
    {
      "Name": "Vierundzwanzig sieben",
      "Average Cost": 70,
      "Cuisines": "Desserts, Tee, Fast Food, Inder, Mittelmeer",
      "Aggregate Rating": 0,
      "City": "Stockton"
    },
    {
      "Name": "U -Bahn",
      "Average Cost": 58,
      "Cuisines": "Café, Mexikaner, Bäckerei, Fast Food",
      "Aggregate Rating": 2.6,
      "City": "Stockton"
    },
    {
      "Name": "Gola Sizzlers",
      "Average Cost": 45,
      "Cuisines": "Tee, Mittelmeer, Desserts, Italienisch",
      "Aggregate Rating": 3.3,
      "City": "Stockton"
    },
    {
      "Name": "Zaika von Dilli 6",
      "Average Cost": 70,
      "Cuisines": "Desserts, Pizza, Fast Food, Inder, Meeresfrüchte",
      "Aggregate Rating": 0,
      "City": "Stockton"
    },
    {
      "Name": "Wok in Flammen",
      "Average Cost": 26,
      "Cuisines": "Desserts, Tee, Italienisch, Grill, Fast Food, Chinesisch",
      "Aggregate Rating": 3.7,
      "City": "Stockton"
    }
  ],
  "Accommodations in Stockton": [
    {
      "NAME": "Wasser, perfekter NYC -Kurzurlaub!",
      "price": 607,
      "room type": "Ganzes Zuhause/Apt",
      "house_rules": "Keine Parteien & keine Kinder unter 10 Jahren",
      "minimum nights": 2,
      "maximum occupancy": 6,
      "review rate number": 4,
      "city": "Stockton"
    },
    {
      "NAME": "Wunderschönes Brooklyn Schlafzimmer mit Luxusdekoration",
      "price": 920,
      "room type": "Privatzimmer",
      "house_rules": "Keine Kinder unter 10 und keine Haustiere und kein Rauchen",
      "minimum nights": 2,
      "maximum occupancy": 2,
      "review rate number": 4,
      "city": "Stockton"
    },
    {
      "NAME": "Privates modernes Zimmer (langfristig 1 Monat oder mehr)",
      "price": 486,
      "room type": "Privatzimmer",
      "house_rules": "Keine Parteien",
      "minimum nights": 2,
      "maximum occupancy": 1,
      "review rate number": 2,
      "city": "Stockton"
    },
    {
      "NAME": "Geräumige 2 BDR APT Brooklyn schläft 8!",
      "price": 1072,
      "room type": "Ganzes Zuhause/Apt",
      "house_rules": "Keine Besucher",
      "minimum nights": 2,
      "maximum occupancy": 5,
      "review rate number": 3,
      "city": "Stockton"
    },
    {
      "NAME": "Luxuriöser Williamsburg Loft mit privater Terrasse",
      "price": 950,
      "room type": "Ganzes Zuhause/Apt",
      "house_rules": "Keine Haustiere und keine Besucher und keine Kinder unter 10 Jahren",
      "minimum nights": 5,
      "maximum occupancy": 2,
      "review rate number": 5,
      "city": "Stockton"
    },
    {
      "NAME": "Greenpoint Oase",
      "price": 170,
      "room type": "Ganzes Zuhause/Apt",
      "house_rules": "Keine Kinder unter 10 Jahren",
      "minimum nights": 365,
      "maximum occupancy": 3,
      "review rate number": 3,
      "city": "Stockton"
    },
    {
      "NAME": "Private APT 2BR/1BATH/Küche/Parkplatz in unserem Haus",
      "price": 420,
      "room type": "Ganzes Zuhause/Apt",
      "house_rules": "Keine Haustiere",
      "minimum nights": 1,
      "maximum occupancy": 4,
      "review rate number": 2,
      "city": "Stockton"
    },
    {
      "NAME": "Mein Premium 1 Schlafzimmer zu Hause in der Upper East Side",
      "price": 444,
      "room type": "Ganzes Zuhause/Apt",
      "house_rules": "Keine Haustiere",
      "minimum nights": 3,
      "maximum occupancy": 2,
      "review rate number": 4,
      "city": "Stockton"
    },
    {
      "NAME": "Eingerichtete ein Schlafzimmer in Midtown West.",
      "price": 279,
      "room type": "Ganzes Zuhause/Apt",
      "house_rules": "Keine Parteien",
      "minimum nights": 30,
      "maximum occupancy": 3,
      "review rate number": 2,
      "city": "Stockton"
    },
    {
      "NAME": "Privatzimmer und Badezimmer in heller Wohnung",
      "price": 1081,
      "room type": "Privatzimmer",
      "house_rules": "Kein Rauchen und keine Kinder unter 10 Jahren",
      "minimum nights": 2,
      "maximum occupancy": 1,
      "review rate number": 1,
      "city": "Stockton"
    },
    {
      "NAME": "Voller gemütlicher Abstand mitten in Manhattan!",
      "price": 455,
      "room type": "Ganzes Zuhause/Apt",
      "house_rules": "Keine Parteien",
      "minimum nights": 4,
      "maximum occupancy": 3,
      "review rate number": 1,
      "city": "Stockton"
    },
    {
      "NAME": "Gemütliches Schlafzimmer mit Fort",
      "price": 484,
      "room type": "Privatzimmer",
      "house_rules": "Keine Parteien",
      "minimum nights": 3,
      "maximum occupancy": 1,
      "review rate number": 2,
      "city": "Stockton"
    }
  ],
  "Flight from Las Vegas to Stockton on 2022-03-03": [
    {
      "Flight Number": "F3576711",
      "Price": 96,
      "DepTime": "06:01",
      "ArrTime": "07:28",
      "ActualElapsedTime": "1 Stunden 27 Minuten",
      "FlightDate": "2022-03-03",
      "OriginCityName": "Las Vegas",
      "DestCityName": "Stockton",
      "Distance": 359
    },
    {
      "Flight Number": "F3580830",
      "Price": 91,
      "DepTime": "20:08",
      "ArrTime": "21:30",
      "ActualElapsedTime": "1 Stunden 22 Minuten",
      "FlightDate": "2022-03-03",
      "OriginCityName": "Las Vegas",
      "DestCityName": "Stockton",
      "Distance": 359
    }
  ],
  "Self-driving from Las Vegas to Stockton": "Selbstfahrer, von Las Vegas bis Stockton, Dauer: 7 Stunden 46 Minuten, Entfernung: 835 km, Kosten: 41",
  "Taxi from Las Vegas to Stockton": "Taxi, von Las Vegas bis Stockton, Dauer: 7 Stunden 46 Minuten, Entfernung: 835 km, Kosten: 835",
  "Flight from Stockton to Las Vegas on 2022-03-05": [
    {
      "Flight Number": "F3576850",
      "Price": 165,
      "DepTime": "13:42",
      "ArrTime": "15:03",
      "ActualElapsedTime": "1 Stunden 21 Minuten",
      "FlightDate": "2022-03-05",
      "OriginCityName": "Stockton",
      "DestCityName": "Las Vegas",
      "Distance": 359
    }
  ],
  "Self-driving from Stockton to Las Vegas": "Selbstfahrer, von Stockton bis Las Vegas, Dauer: 7 Stunden 50 Minuten, Entfernung: 836 km, Kosten: 41",
  "Taxi from Stockton to Las Vegas": "Taxi, von Stockton nach Las Vegas, Dauer: 7 Stunden 50 Minuten, Entfernung: 836 km, Kosten: 836",
  "Attractions in Louisville": [
    {
      "Name": "Louisville Mega Höhle",
      "Latitude": 38.2012259,
      "Longitude": -85.703929,
      "Address": "1841 Taylor Ave, Louisville, KY 40213, USA",
      "Phone": "(877) 614-6342",
      "Website": "https://louisvillemegacavern.com/",
      "City": "Louisville"
    },
    {
      "Name": "Louisville Slugger Museum & Factory",
      "Latitude": 38.25713559999999,
      "Longitude": -85.7639796,
      "Address": "800 W Main Street, Louisville, KY 40202, USA",
      "Phone": "(877) 775-8443",
      "Website": "http://www.sluggermuseum.com/",
      "City": "Louisville"
    },
    {
      "Name": "Kentucky Science Center",
      "Latitude": 38.2576145,
      "Longitude": -85.76265699999999,
      "Address": "727 W Main Street, Louisville, KY 40202, USA",
      "Phone": "(502) 561-6100",
      "Website": "http://www.kysciencecenter.org/",
      "City": "Louisville"
    },
    {
      "Name": "Louisville Zoo",
      "Latitude": 38.2057299,
      "Longitude": -85.7071264,
      "Address": "1100 Trevilian Way, Louisville, KY 40213, USA",
      "Phone": "(502) 459-2181",
      "Website": "https://louisvillezoo.org/",
      "City": "Louisville"
    },
    {
      "Name": "Frazier History Museum",
      "Latitude": 38.2577529,
      "Longitude": -85.7644972,
      "Address": "829 W Main Street, Louisville, KY 40202, USA",
      "Phone": "(502) 753-5663",
      "Website": "http://www.fraziermuseum.org/",
      "City": "Louisville"
    },
    {
      "Name": "Das Waverly Hills Sanatorium",
      "Latitude": 38.1301221,
      "Longitude": -85.8416929,
      "Address": "4400 Paralee DR, Louisville, KY 40272, USA",
      "Phone": "(502) 690-7880",
      "Website": "http://www.therealwaverlyhills.com/",
      "City": "Louisville"
    },
    {
      "Name": "Kentucky Derby Museum",
      "Latitude": 38.2054621,
      "Longitude": -85.7710699,
      "Address": "704 Central Ave, Louisville, KY 40208, USA",
      "Phone": "(502) 637-1111",
      "Website": "http://www.derbymuseum.org/",
      "City": "Louisville"
    },
    {
      "Name": "Cherokee Park",
      "Latitude": 38.2399656,
      "Longitude": -85.6993663,
      "Address": "745 Cochran Hill Rd, Louisville, KY 40206, USA",
      "Phone": "(502) 574-7275",
      "Website": "https://louisvilleky.gov/government/parks/park-list/cherokee-park",
      "City": "Louisville"
    },
    {
      "Name": "Stadtwagen",
      "Latitude": 38.2580913,
      "Longitude": -85.75648559999999,
      "Address": "140 N Vierte St., Louisville, KY 40202, USA",
      "Phone": "(502) 939-3415",
      "Website": "https://trolleydeville.com/",
      "City": "Louisville"
    },
    {
      "Name": "Churchill Downs",
      "Latitude": 38.2037252,
      "Longitude": -85.77239879999999,
      "Address": "700 Central Ave, Louisville, KY 40208, USA",
      "Phone": "(502) 636-4400",
      "Website": "http://www.churchilldowns.com/",
      "City": "Louisville"
    },
    {
      "Name": "Speed ​​Art Museum",
      "Latitude": 38.2183706,
      "Longitude": -85.7609428,
      "Address": "2035 S 3. ST, Louisville, KY 40208, USA",
      "Phone": "(502) 634-2700",
      "Website": "http://www.speedmuseum.org/",
      "City": "Louisville"
    },
    {
      "Name": "Wasser am Wasser",
      "Latitude": 38.26073890000001,
      "Longitude": -85.74260129999999,
      "Address": "129 River Rd, Louisville, KY 40202, USA",
      "Phone": "(502) 574-3768",
      "Website": "https://ourwaterfront.org/",
      "City": "Louisville"
    },
    {
      "Name": "Lichter unter Louisville",
      "Latitude": 38.2015141,
      "Longitude": -85.7040882,
      "Address": "1841 Taylor Ave, Louisville, KY 40213, USA",
      "Phone": "(877) 614-6342",
      "Website": "http://lightsunderlouisville.com/",
      "City": "Louisville"
    },
    {
      "Name": "Conrad-Caldwell House Museum",
      "Latitude": 38.2291479,
      "Longitude": -85.76342230000002,
      "Address": "1402 St. James CT, Louisville, KY 40208, USA",
      "Phone": "(502) 636-5023",
      "Website": "http://conrad-caldwell.org/",
      "City": "Louisville"
    },
    {
      "Name": "Louisville Nature Center",
      "Latitude": 38.2096492,
      "Longitude": -85.7111025,
      "Address": "3745 Illinois Ave, Louisville, KY 40213, USA",
      "Phone": "(502) 458-1328",
      "Website": "http://louisvillenaturecenter.org/",
      "City": "Louisville"
    },
    {
      "Name": "Locust Grove",
      "Latitude": 38.28645400000001,
      "Longitude": -85.66138699999999,
      "Address": "561 Blankenbaker LN, Louisville, KY 40207, USA",
      "Phone": "(502) 897-9845",
      "Website": "http://www.locustgrove.org/",
      "City": "Louisville"
    },
    {
      "Name": "Muhammad Ali Center",
      "Latitude": 38.25847619999999,
      "Longitude": -85.75980480000001,
      "Address": "144 N 6th St, Louisville, KY 40202, USA",
      "Phone": "(502) 584-9254",
      "Website": "https://alicenter.org/",
      "City": "Louisville"
    },
    {
      "Name": "Irokois Park",
      "Latitude": 38.1608222,
      "Longitude": -85.7803059,
      "Address": "2120 Rundill Rd, Louisville, KY 40214, USA",
      "Phone": "(502) 363-7766",
      "Website": "https://louisvilleky.gov/government/parks/park-list/iroquois-park",
      "City": "Louisville"
    },
    {
      "Name": "Louisville Knot",
      "Latitude": 38.257531,
      "Longitude": -85.7656208,
      "Address": "8 W Main Street, Louisville, KY 40202, USA",
      "Phone": "Unbekannt",
      "Website": "Unbekannt",
      "City": "Louisville"
    },
    {
      "Name": "KMAC Contemporary Art Museum",
      "Latitude": 38.257524,
      "Longitude": -85.762142,
      "Address": "715 W Main Street, Louisville, KY 40202, USA",
      "Phone": "(502) 589-0102",
      "Website": "http://www.kmacmuseum.org/",
      "City": "Louisville"
    }
  ],
  "Restaurants in Louisville": [
    {
      "Name": "Buffalo Wild Wings",
      "Average Cost": 22,
      "Cuisines": "Tee, Bäckerei, BBQ, Fast Food, Amerikaner",
      "Aggregate Rating": 3.4,
      "City": "Louisville"
    },
    {
      "Name": "Stahlmagnolien",
      "Average Cost": 26,
      "Cuisines": "Italienisch, Mexikaner, Fast Food, Café, Meeresfrüchte",
      "Aggregate Rating": 3.8,
      "City": "Louisville"
    },
    {
      "Name": "Herr Idli Xpress",
      "Average Cost": 51,
      "Cuisines": "Café, Mittelmeer, Fast Food",
      "Aggregate Rating": 2.6,
      "City": "Louisville"
    },
    {
      "Name": "Bal Ji Rasoi",
      "Average Cost": 77,
      "Cuisines": "Meeresfrüchte, Bäckerei, Italienisch",
      "Aggregate Rating": 0,
      "City": "Louisville"
    },
    {
      "Name": "Sangam -Süßigkeiten",
      "Average Cost": 18,
      "Cuisines": "Bäckerei, Pizza, Café, Desserts",
      "Aggregate Rating": 2.5,
      "City": "Louisville"
    },
    {
      "Name": "Frühstücksecke",
      "Average Cost": 46,
      "Cuisines": "Tee, Pizza, Französisch, Bäckerei, Café",
      "Aggregate Rating": 3.1,
      "City": "Louisville"
    },
    {
      "Name": "Rara Drache",
      "Average Cost": 21,
      "Cuisines": "Tee, Café, Mittelmeer, Fast Food",
      "Aggregate Rating": 0,
      "City": "Louisville"
    },
    {
      "Name": "QD's Restaurant",
      "Average Cost": 60,
      "Cuisines": "Mexikaner, Bäckerei, Fast Food, Café, Meeresfrüchte",
      "Aggregate Rating": 3.9,
      "City": "Louisville"
    },
    {
      "Name": "Snacks und mehr",
      "Average Cost": 59,
      "Cuisines": "Tee, Pizza, Italienisch, Café, Inder, Meeresfrüchte",
      "Aggregate Rating": 0,
      "City": "Louisville"
    },
    {
      "Name": "MC Donalds",
      "Average Cost": 33,
      "Cuisines": "Tee, Französisch, Pizza, Italienisch",
      "Aggregate Rating": 3.2,
      "City": "Louisville"
    },
    {
      "Name": "Janta Bäckerei",
      "Average Cost": 48,
      "Cuisines": "Tee, Fast Food, Mittelmeer, Italienisch",
      "Aggregate Rating": 3.6,
      "City": "Louisville"
    },
    {
      "Name": "Aggarwals Süßigkeiten Paradies",
      "Average Cost": 60,
      "Cuisines": "Tee, Französisch, Bäckerei, Café",
      "Aggregate Rating": 2.7,
      "City": "Louisville"
    },
    {
      "Name": "Vikrant Cafe",
      "Average Cost": 86,
      "Cuisines": "Tee, Bäckerei, Fast Food, Mittelmeer, Meeresfrüchte",
      "Aggregate Rating": 3.3,
      "City": "Louisville"
    },
    {
      "Name": "Shri Bankey Bihari Brajwasi Rasgulle Wala",
      "Average Cost": 79,
      "Cuisines": "Tee, Café",
      "Aggregate Rating": 3.5,
      "City": "Louisville"
    },
    {
      "Name": "Vaishno Chat Bhandar",
      "Average Cost": 48,
      "Cuisines": "Café, Bäckerei, Meeresfrüchte",
      "Aggregate Rating": 3.9,
      "City": "Louisville"
    },
    {
      "Name": "Zaffran",
      "Average Cost": 12,
      "Cuisines": "Desserts, Tee, Bäckerei, Fast Food, Chinesisch",
      "Aggregate Rating": 4.5,
      "City": "Louisville"
    },
    {
      "Name": "Orange Cafe & Restaurant",
      "Average Cost": 83,
      "Cuisines": "Desserts, Tee, Pizza, Mexikaner, BBQ",
      "Aggregate Rating": 3.1,
      "City": "Louisville"
    },
    {
      "Name": "New Gaurav Dhaba",
      "Average Cost": 97,
      "Cuisines": "Desserts, BBQ, Inder, Mittelmeer, Meeresfrüchte",
      "Aggregate Rating": 0,
      "City": "Louisville"
    },
    {
      "Name": "Peshawari",
      "Average Cost": 74,
      "Cuisines": "Tee, Pizza, BBQ, Desserts",
      "Aggregate Rating": 3.6,
      "City": "Louisville"
    },
    {
      "Name": "Die Mitternachtshelden",
      "Average Cost": 35,
      "Cuisines": "Desserts, Pizza, Mexikaner, Amerikaner, Meeresfrüchte",
      "Aggregate Rating": 3.6,
      "City": "Louisville"
    },
    {
      "Name": "Schokolade von Wedcraft",
      "Average Cost": 22,
      "Cuisines": "Fast Food, Französisch, Inder, Meeresfrüchte",
      "Aggregate Rating": 0,
      "City": "Louisville"
    },
    {
      "Name": "Gayatri's Break Point Restaurant",
      "Average Cost": 39,
      "Cuisines": "Meeresfrüchte, Bäckerei, Desserts, Fast Food",
      "Aggregate Rating": 3.1,
      "City": "Louisville"
    },
    {
      "Name": "Prerna Family Restaurant",
      "Average Cost": 70,
      "Cuisines": "Cafe, Amerikaner, Mittelmeer, Meeresfrüchte",
      "Aggregate Rating": 0,
      "City": "Louisville"
    },
    {
      "Name": "Kenny Rogers Roasters",
      "Average Cost": 17,
      "Cuisines": "Tee, Pizza, Italienisch, Café, Inder, Meeresfrüchte",
      "Aggregate Rating": 3.7,
      "City": "Louisville"
    },
    {
      "Name": "F-All (Essen für alle)",
      "Average Cost": 42,
      "Cuisines": "Tee, Pizza, Mexikaner, Bäckerei, Fast Food",
      "Aggregate Rating": 3.4,
      "City": "Louisville"
    },
    {
      "Name": "Domino's Pizza",
      "Average Cost": 100,
      "Cuisines": "Desserts, Tee, Bäckerei, Mittelmeer, Meeresfrüchte",
      "Aggregate Rating": 2.4,
      "City": "Louisville"
    },
    {
      "Name": "Fischstreat",
      "Average Cost": 73,
      "Cuisines": "Chinesisch, Mexikaner, Bäckerei, Café",
      "Aggregate Rating": 4,
      "City": "Louisville"
    },
    {
      "Name": "Licorish Bistro",
      "Average Cost": 91,
      "Cuisines": "Pizza, Italienisch, Französisch, Fast Food, Café, Meeresfrüchte",
      "Aggregate Rating": 4.6,
      "City": "Louisville"
    }
  ],
  "Accommodations in Louisville": [
    {
      "NAME": "Großes Zimmer mit Bath & Balkon in BK!",
      "price": 1123,
      "room type": "Privatzimmer",
      "house_rules": "Keine Parteien",
      "minimum nights": 1,
      "maximum occupancy": 2,
      "review rate number": 4,
      "city": "Louisville"
    },
    {
      "NAME": "Schönes 1 Schlafzimmer auseinander, Washington Heights",
      "price": 69,
      "room type": "Privatzimmer",
      "house_rules": "Keine Besucher",
      "minimum nights": 7,
      "maximum occupancy": 2,
      "review rate number": 2,
      "city": "Louisville"
    },
    {
      "NAME": "Gemütliche Bdrm. Astoria, Queens. 10 min nach Manhattan.",
      "price": 1177,
      "room type": "Privatzimmer",
      "house_rules": "Keine Partys und keine Haustiere",
      "minimum nights": 2,
      "maximum occupancy": 1,
      "review rate number": 3,
      "city": "Louisville"
    },
    {
      "NAME": "Künstlerische Oase der Lower East Side",
      "price": 598,
      "room type": "Privatzimmer",
      "house_rules": "Keine Haustiere und keine Kinder unter 10 Jahren",
      "minimum nights": 5,
      "maximum occupancy": 2,
      "review rate number": 5,
      "city": "Louisville"
    },
    {
      "NAME": "Geräumiges Zimmer und Privatbad in Harlem Townhouse",
      "price": 805,
      "room type": "Privatzimmer",
      "house_rules": "Keine Besucher und keine Partys und kein Rauchen",
      "minimum nights": 2,
      "maximum occupancy": 1,
      "review rate number": 2,
      "city": "Louisville"
    },
    {
      "NAME": "Stilvolle Apt im Herzen des Dorfes Greenwich",
      "price": 796,
      "room type": "Ganzes Zuhause/Apt",
      "house_rules": "Keine Parteien",
      "minimum nights": 30,
      "maximum occupancy": 6,
      "review rate number": 5,
      "city": "Louisville"
    },
    {
      "NAME": "Mein Zimmer/Kaffee & Bagel",
      "price": 815,
      "room type": "Privatzimmer",
      "house_rules": "Keine Kinder unter 10 Jahren und keine Besucher",
      "minimum nights": 6,
      "maximum occupancy": 1,
      "review rate number": 4,
      "city": "Louisville"
    },
    {
      "NAME": "Geräumige 2 Br Clinton Hill Apartment-Brooklyn, NY",
      "price": 823,
      "room type": "Ganzes Zuhause/Apt",
      "house_rules": "Keine Haustiere",
      "minimum nights": 1,
      "maximum occupancy": 6,
      "review rate number": 2,
      "city": "Louisville"
    }
  ],
  "Flight from New Orleans to Louisville on 2022-03-12": "Es gibt keinen Flug von New Orleans nach Louisville am 2022-03-12.",
  "Self-driving from New Orleans to Louisville": "Selbstfahrer, von New Orleans nach Louisville, Dauer: 10 Stunden 14 Minuten, Entfernung: 1.136 km, Kosten: 56",
  "Taxi from New Orleans to Louisville": "Taxi, von New Orleans nach Louisville, Dauer: 10 Stunden 14 Minuten, Entfernung: 1.136 km, Kosten: 1136",
  "Flight from Louisville to New Orleans on 2022-03-14": "Es gibt keinen Flug von Louisville nach New Orleans am 2022-03-14.",
  "Self-driving from Louisville to New Orleans": "Selbstfahrer, von Louisville nach New Orleans, Dauer: 10 Stunden 15 Minuten, Entfernung: 1.139 km, Kosten: 56",
  "Taxi from Louisville to New Orleans": "Taxi, von Louisville nach New Orleans, Dauer: 10 Stunden 15 Minuten, Entfernung: 1.139 km, Kosten: 1139"
}