{
  "Attractions in Rockford": [
    {
      "Name": "Museo Burpee de historia natural",
      "Latitude": 42.2773242,
      "Longitude": -89.08814249999999,
      "Address": "737 N Main St, Rockford, IL 61103, EE. UU.",
      "Phone": "(815) 965-3433",
      "Website": "http://www.burpee.org/",
      "City": "Rockford"
    },
    {
      "Name": "Museo del Villa Midway",
      "Latitude": 42.2804989,
      "Longitude": -88.98463989999999,
      "Address": "6799 Guilford Rd, Rockford, IL 61107, EE. UU.",
      "Phone": "(815) 397-9112",
      "Website": "https://www.midwayvillage.com/",
      "City": "Rockford"
    },
    {
      "Name": "Museo del Centro de Discovery",
      "Latitude": 42.2771046,
      "Longitude": -89.0894304,
      "Address": "711 N Main St, Rockford, IL 61103, EE. UU.",
      "Phone": "(815) 963-6769",
      "Website": "http://www.discoverycententermuseum.org/",
      "City": "Rockford"
    },
    {
      "Name": "Tinker Museo y jardines de la cabaña suiza",
      "Latitude": 42.26411,
      "Longitude": -89.102796,
      "Address": "411 Kent St, Rockford, IL 61102, EE. UU.",
      "Phone": "(815) 964-2424",
      "Website": "http://www.tinkercottage.com/",
      "City": "Rockford"
    },
    {
      "Name": "Jardines japoneses de Anderson",
      "Latitude": 42.2900539,
      "Longitude": -89.05779539999999,
      "Address": "318 Spring Creek Rd, Rockford, IL 61107, EE. UU.",
      "Phone": "(815) 229-9390",
      "Website": "http://andersongardens.org/",
      "City": "Rockford"
    },
    {
      "Name": "Nicholas Conservatory & Gardens",
      "Latitude": 42.28229330000001,
      "Longitude": -89.0707044,
      "Address": "1354 N 2nd St, Rockford, IL 61107, EE. UU.",
      "Phone": "(815) 987-8858",
      "Website": "http://www.nicholasconservatory.com/",
      "City": "Rockford"
    },
    {
      "Name": "Museo de la casa de Erlander",
      "Latitude": 42.26409779999999,
      "Longitude": -89.08869279999999,
      "Address": "404 S 3rd St, Rockford, IL 61104, EE. UU.",
      "Phone": "(815) 963-5559",
      "Website": "http://www.swedishhistorical.org/",
      "City": "Rockford"
    },
    {
      "Name": "Museo del patrimonio étnico",
      "Latitude": 42.2611002,
      "Longitude": -89.100915,
      "Address": "1129 S Main St, Rockford, IL 61101, EE. UU.",
      "Phone": "(815) 962-7402",
      "Website": "https://www.ethnicheritagemuseum.org/",
      "City": "Rockford"
    },
    {
      "Name": "Parque consultor",
      "Latitude": 42.2827292,
      "Longitude": -89.0641156,
      "Address": "1401 N 2nd St, Rockford, IL 61107, EE. UU.",
      "Phone": "(815) 987-8858",
      "Website": "http://rockfordparkdistrict.org/ncg",
      "City": "Rockford"
    },
    {
      "Name": "Klehm Arboretum y jardín botánico",
      "Latitude": 42.2444523,
      "Longitude": -89.11254020000001,
      "Address": "2715 S Main St, Rockford, IL 61102, EE. UU.",
      "Phone": "(815) 965-8146",
      "Website": "http://www.klehm.org/",
      "City": "Rockford"
    },
    {
      "Name": "Davis Park en Founders Landing",
      "Latitude": 42.26825019999999,
      "Longitude": -89.0953792,
      "Address": "320 S Wyman St, Rockford, IL 61101, EE. UU.",
      "Phone": "(815) 968-5600",
      "Website": "https://www.gorockford.com/listings/davis-cark-at-founders-landing/275/",
      "City": "Rockford"
    },
    {
      "Name": "Casa Laurent de Frank Lloyd Wright",
      "Latitude": 42.2998334,
      "Longitude": -89.0243617,
      "Address": "4646 Spring Brook Rd, Rockford, IL 61114, EE. UU.",
      "Phone": "(815) 877-2952",
      "Website": "http://www.laurenthouse.com/",
      "City": "Rockford"
    },
    {
      "Name": "Jardines",
      "Latitude": 42.2840305,
      "Longitude": -89.0679007,
      "Address": "1354 N 2nd St, Rockford, IL 61107, EE. UU.",
      "Phone": "(815) 987-8858",
      "Website": "https://nicholasconservator.com/",
      "City": "Rockford"
    },
    {
      "Name": "Parque de museo frente al río",
      "Latitude": 42.2768431,
      "Longitude": -89.0888593,
      "Address": "Ste 3, 711 N Main St, Rockford, IL 61103, EE. UU.",
      "Phone": "(815) 962-0105",
      "Website": "Desconocido",
      "City": "Rockford"
    },
    {
      "Name": "Parque Searls",
      "Latitude": 42.3006848,
      "Longitude": -89.1241445,
      "Address": "4950 Safford Rd, Rockford, IL 61101, EE. UU.",
      "Phone": "(815) 987-8800",
      "Website": "http://rockfordparkdistrict.org/",
      "City": "Rockford"
    },
    {
      "Name": "Los jardines paloma",
      "Latitude": 42.2936707,
      "Longitude": -89.0346172,
      "Address": "3622 Brookview Rd, Rockford, IL 61107, EE. UU.",
      "Phone": "(815) 399-0324",
      "Website": "http://www.lapalomagardens.com/",
      "City": "Rockford"
    },
    {
      "Name": "Distrito de Rockford Park",
      "Latitude": 42.268422,
      "Longitude": -89.0972335,
      "Address": "401 S Main St, Rockford, IL 61101, EE. UU.",
      "Phone": "(815) 987-8800",
      "Website": "https://rockfordparkdistrict.org/",
      "City": "Rockford"
    },
    {
      "Name": "Piezas de parque",
      "Latitude": 42.2740598,
      "Longitude": -89.0227687,
      "Address": "623 N Alpine Rd, Rockford, IL 61107, EE. UU.",
      "Phone": "Desconocido",
      "Website": "https://www.rockfordparkdistrict.org/",
      "City": "Rockford"
    },
    {
      "Name": "Blackhawk Springs Forest Preserve",
      "Latitude": 42.2046939,
      "Longitude": -88.9916363,
      "Address": "5360 Mulford Road &, 5801 Perryville Rd, Rockford, IL 61109, EE. UU.",
      "Phone": "(815) 877-6100",
      "Website": "http://winnebagoforest.org/preserves/blackhawk-springs/",
      "City": "Rockford"
    },
    {
      "Name": "Parque Centenario de Ingersoll",
      "Latitude": 42.2662975,
      "Longitude": -89.09143920000001,
      "Address": "315 S 1st St, Rockford, IL 61104, EE. UU.",
      "Phone": "(815) 987-8800",
      "Website": "http://rockfordparkdistrict.org/",
      "City": "Rockford"
    }
  ],
  "Restaurants in Rockford": [
    {
      "Name": "Coco de bambú",
      "Average Cost": 72,
      "Cuisines": "Té, francés, panadería, barbacoa, café",
      "Aggregate Rating": 4.9,
      "City": "Rockford"
    },
    {
      "Name": "Mango volador",
      "Average Cost": 20,
      "Cuisines": "Americano, BBQ, mariscos",
      "Aggregate Rating": 4.5,
      "City": "Rockford"
    },
    {
      "Name": "Gajalee Sea Food",
      "Average Cost": 49,
      "Cuisines": "Panadería, barbacoa",
      "Aggregate Rating": 3.9,
      "City": "Rockford"
    },
    {
      "Name": "Shree Balaji Chaat Bhandar",
      "Average Cost": 97,
      "Cuisines": "Francés, panadería, barbacoa, italiano",
      "Aggregate Rating": 3.2,
      "City": "Rockford"
    },
    {
      "Name": "Debe ser arábica",
      "Average Cost": 43,
      "Cuisines": "Té, panadería, indio, comida rápida",
      "Aggregate Rating": 3.5,
      "City": "Rockford"
    },
    {
      "Name": "Día de café del café",
      "Average Cost": 28,
      "Cuisines": "Chino, postres, pizza, café, mediterráneo",
      "Aggregate Rating": 0,
      "City": "Rockford"
    },
    {
      "Name": "Nutri Punch",
      "Average Cost": 34,
      "Cuisines": "Té, chino, café, postres",
      "Aggregate Rating": 4,
      "City": "Rockford"
    },
    {
      "Name": "Café Southall",
      "Average Cost": 56,
      "Cuisines": "Mariscos, pizza, café, comida rápida",
      "Aggregate Rating": 4.2,
      "City": "Rockford"
    },
    {
      "Name": "Eggspectation - Jaypee Vasant Continental",
      "Average Cost": 77,
      "Cuisines": "Té, mediterráneo, mariscos",
      "Aggregate Rating": 3.6,
      "City": "Rockford"
    },
    {
      "Name": "Aroma reposo o bar",
      "Average Cost": 58,
      "Cuisines": "Panadería, comida rápida, chino, estadounidense, mariscos",
      "Aggregate Rating": 3.6,
      "City": "Rockford"
    },
    {
      "Name": "Panadería avanzada",
      "Average Cost": 100,
      "Cuisines": "Postres, pizza, mexicano, panadería, chino, mariscos",
      "Aggregate Rating": 2.9,
      "City": "Rockford"
    },
    {
      "Name": "Marcar un pastel",
      "Average Cost": 29,
      "Cuisines": "Café, estadounidense, mediterráneo, postres",
      "Aggregate Rating": 0,
      "City": "Rockford"
    },
    {
      "Name": "Te gusta",
      "Average Cost": 32,
      "Cuisines": "Té, francés, postres",
      "Aggregate Rating": 0,
      "City": "Rockford"
    },
    {
      "Name": "Metro",
      "Average Cost": 42,
      "Cuisines": "Té, chino, pizza",
      "Aggregate Rating": 3.4,
      "City": "Rockford"
    },
    {
      "Name": "Aggarwal dulce centro",
      "Average Cost": 81,
      "Cuisines": "Postres, té, italiano, panadería, café",
      "Aggregate Rating": 0,
      "City": "Rockford"
    },
    {
      "Name": "Centro de Sweets Aggarwal",
      "Average Cost": 73,
      "Cuisines": "Comida rápida, chino, barbacoa, italiano",
      "Aggregate Rating": 0,
      "City": "Rockford"
    },
    {
      "Name": "Giri Momos Center y comida rápida china",
      "Average Cost": 44,
      "Cuisines": "Café, indio, mariscos",
      "Aggregate Rating": 2.4,
      "City": "Rockford"
    },
    {
      "Name": "Sr. Confectioner - Hotel Pride Plaza",
      "Average Cost": 74,
      "Cuisines": "Panadería, postres",
      "Aggregate Rating": 0,
      "City": "Rockford"
    },
    {
      "Name": "Debe ser",
      "Average Cost": 98,
      "Cuisines": "Panadería, postres, mariscos",
      "Aggregate Rating": 0,
      "City": "Rockford"
    },
    {
      "Name": "Esquina de comida china de Hangchuaa",
      "Average Cost": 64,
      "Cuisines": "Té, barbacoa, mariscos",
      "Aggregate Rating": 3.1,
      "City": "Rockford"
    },
    {
      "Name": "Grappa - Shangri -la's - Eros Hotel",
      "Average Cost": 21,
      "Cuisines": "Panadería, postres, italiano",
      "Aggregate Rating": 3.4,
      "City": "Rockford"
    },
    {
      "Name": "Nuevo Bhappe de Hatti",
      "Average Cost": 76,
      "Cuisines": "Mariscos, mexicano, barbacoa, comida rápida",
      "Aggregate Rating": 0,
      "City": "Rockford"
    },
    {
      "Name": "Dunkin 'Donuts",
      "Average Cost": 24,
      "Cuisines": "Café, panadería, barbacoa, mariscos",
      "Aggregate Rating": 0,
      "City": "Rockford"
    },
    {
      "Name": "Metro",
      "Average Cost": 26,
      "Cuisines": "Panadería, pizza, barbacoa, postres",
      "Aggregate Rating": 3.8,
      "City": "Rockford"
    },
    {
      "Name": "La choza gourmet",
      "Average Cost": 77,
      "Cuisines": "Té, pizza, indio, comida rápida",
      "Aggregate Rating": 3.3,
      "City": "Rockford"
    },
    {
      "Name": "Espeluznante",
      "Average Cost": 64,
      "Cuisines": "Americano, Indio, BBQ, mariscos",
      "Aggregate Rating": 3.1,
      "City": "Rockford"
    },
    {
      "Name": "Chaophraya",
      "Average Cost": 74,
      "Cuisines": "Chino, pizza, café, postres",
      "Aggregate Rating": 3.9,
      "City": "Rockford"
    }
  ],
  "Accommodations in Rockford": [
    {
      "NAME": "Amplia ubicación de 3bdr Prime!",
      "price": 1030,
      "room type": "Casa entera/apto",
      "house_rules": "No Fumar",
      "minimum nights": 2,
      "maximum occupancy": 9,
      "review rate number": 2,
      "city": "Rockford"
    },
    {
      "NAME": "Habitación privada en un apto de dos dormitorios.",
      "price": 210,
      "room type": "Habitación privada",
      "house_rules": "Sin visitantes y sin fumar",
      "minimum nights": 1,
      "maximum occupancy": 2,
      "review rate number": 4,
      "city": "Rockford"
    },
    {
      "NAME": "Habitaciones privadas y ubicación incomparable",
      "price": 1075,
      "room type": "Habitación privada",
      "house_rules": "Sin mascotas y no fiestas",
      "minimum nights": 2,
      "maximum occupancy": 2,
      "review rate number": 2,
      "city": "Rockford"
    },
    {
      "NAME": "PARK Side Zen Home - Terrace y al lado del parque central",
      "price": 250,
      "room type": "Casa entera/apto",
      "house_rules": "No hay niños menores de 10",
      "minimum nights": 3,
      "maximum occupancy": 3,
      "review rate number": 3,
      "city": "Rockford"
    },
    {
      "NAME": "¡Lux 2 dormitorios NYC APT en el río Hudson!",
      "price": 737,
      "room type": "Casa entera/apto",
      "house_rules": "No Fumar",
      "minimum nights": 30,
      "maximum occupancy": 4,
      "review rate number": 5,
      "city": "Rockford"
    },
    {
      "NAME": "Apartamento moderno de 1 dormitorio en Fordham",
      "price": 377,
      "room type": "Casa entera/apto",
      "house_rules": "Sin mascotas",
      "minimum nights": 7,
      "maximum occupancy": 2,
      "review rate number": 5,
      "city": "Rockford"
    },
    {
      "NAME": "Dormitorio privado en bedstuy!",
      "price": 1107,
      "room type": "Habitación privada",
      "house_rules": "No Fumar",
      "minimum nights": 10,
      "maximum occupancy": 1,
      "review rate number": 4,
      "city": "Rockford"
    },
    {
      "NAME": "Pure Luxury One BDRM + Sofá Bed en Central Park",
      "price": 243,
      "room type": "Casa entera/apto",
      "house_rules": "No fumar ni fiestas",
      "minimum nights": 2,
      "maximum occupancy": 3,
      "review rate number": 3,
      "city": "Rockford"
    },
    {
      "NAME": "Estudio encantador en el corazón de Astoria",
      "price": 519,
      "room type": "Casa entera/apto",
      "house_rules": "No hay fiestas",
      "minimum nights": 4,
      "maximum occupancy": 4,
      "review rate number": 4,
      "city": "Rockford"
    },
    {
      "NAME": "El corazón de Brooklyn",
      "price": 154,
      "room type": "Casa entera/apto",
      "house_rules": "No hay niños menores de 10 años y no visitantes y sin mascotas",
      "minimum nights": 30,
      "maximum occupancy": 3,
      "review rate number": 2,
      "city": "Rockford"
    },
    {
      "NAME": "Dormitorio de Stuyvesant privado Madison 1R-2",
      "price": 395,
      "room type": "Habitación privada",
      "house_rules": "No hay fiestas ni niños menores de 10 años",
      "minimum nights": 30,
      "maximum occupancy": 2,
      "review rate number": 3,
      "city": "Rockford"
    },
    {
      "NAME": "Dormitorio grande y soleado en el animado vecindario de Brooklyn",
      "price": 440,
      "room type": "Habitación privada",
      "house_rules": "Sin mascotas y sin fumar",
      "minimum nights": 14,
      "maximum occupancy": 2,
      "review rate number": 3,
      "city": "Rockford"
    },
    {
      "NAME": "Midtown 2 camas Naciones Unidas Loc, cocina completa",
      "price": 245,
      "room type": "Casa entera/apto",
      "house_rules": "No hay visitantes",
      "minimum nights": 3,
      "maximum occupancy": 3,
      "review rate number": 4,
      "city": "Rockford"
    }
  ],
  "Flight from St. Petersburg to Rockford on 2022-03-16": [
    {
      "Flight Number": "F3573659",
      "Price": 474,
      "DepTime": "15:40",
      "ArrTime": "17:04",
      "ActualElapsedTime": "2 horas 24 minutos",
      "FlightDate": "2022-03-16",
      "OriginCityName": "San Petersburgo",
      "DestCityName": "Rockford",
      "Distance": 1049
    }
  ],
  "Self-driving from St. Petersburg to Rockford": "Sin información válida.",
  "Taxi from St. Petersburg to Rockford": "Sin información válida.",
  "Flight from Rockford to St. Petersburg on 2022-03-18": [
    {
      "Flight Number": "F3573120",
      "Price": 346,
      "DepTime": "19:00",
      "ArrTime": "22:43",
      "ActualElapsedTime": "2 horas 43 minutos",
      "FlightDate": "2022-03-18",
      "OriginCityName": "Rockford",
      "DestCityName": "San Petersburgo",
      "Distance": 1049
    }
  ],
  "Self-driving from Rockford to St. Petersburg": "Sin información válida.",
  "Taxi from Rockford to St. Petersburg": "Sin información válida.",
  "Attractions in Pensacola": [
    {
      "Name": "Pueblo histórico de Pensacola",
      "Latitude": 30.40874519999999,
      "Longitude": -87.2130784,
      "Address": "205 E Zaragoza St, Pensacola, FL 32502, EE. UU.",
      "Phone": "(850) 595-5993",
      "Website": "http://www.historicpensacola.org/",
      "City": "Pensacola"
    },
    {
      "Name": "Museo de Arte de Pensacola",
      "Latitude": 30.4079585,
      "Longitude": -87.213443,
      "Address": "407 S Jefferson St, Pensacola, FL 32502, EE. UU.",
      "Phone": "(850) 432-6247",
      "Website": "http://www.pensacolamuseum.org/",
      "City": "Pensacola"
    },
    {
      "Name": "Palafox Street Downtown Pensacola",
      "Latitude": 30.4156547,
      "Longitude": -87.2158627,
      "Address": "200 N Palafox St, Pensacola, FL 32502, EE. UU.",
      "Phone": "Desconocido",
      "Website": "http://visitpensacola.com/",
      "City": "Pensacola"
    },
    {
      "Name": "Plaza De Luna Memorial Monument",
      "Latitude": 30.402506,
      "Longitude": -87.2130128,
      "Address": "900 con Palafox St, Pensacola, FL 32502, EE. UU.",
      "Phone": "(850) 436-5670",
      "Website": "https://www.cityofpensacola.com/facility/facility/details/plazadeluna-75",
      "City": "Pensacola"
    },
    {
      "Name": "El puente de graffiti",
      "Latitude": 30.420402,
      "Longitude": -87.193888,
      "Address": "N 17th Ave, Pensacola, FL 32502, EE. UU.",
      "Phone": "(850) 361-9306",
      "Website": "http://thegraffitibidridge.com/",
      "City": "Pensacola"
    },
    {
      "Name": "Museo de Niños de Pensacola",
      "Latitude": 30.408296,
      "Longitude": -87.2127429,
      "Address": "115 Zaragoza St, Pensacola, FL 32502, EE. UU.",
      "Phone": "(850) 595-1559",
      "Website": "http://www.historicpensacola.org/plan-your-visit/museums-properties/pensacola-childrens-museum/",
      "City": "Pensacola"
    },
    {
      "Name": "Ir retro",
      "Latitude": 30.4196742,
      "Longitude": -87.21960759999999,
      "Address": "610 N Spring St, Pensacola, FL 32501, EE. UU.",
      "Phone": "(850) 466-5220",
      "Website": "http://www.goretro.us/",
      "City": "Pensacola"
    },
    {
      "Name": "Museo de Comercio",
      "Latitude": 30.4085519,
      "Longitude": -87.21147859999999,
      "Address": "201 Zaragoza St, Pensacola, FL 32502, EE. UU.",
      "Phone": "(850) 595-5985",
      "Website": "https://historicpensacola.org/plan-your-visit/museums-properties/museum-of-commerce/",
      "City": "Pensacola"
    },
    {
      "Name": "El museo de la casa de quina",
      "Latitude": 30.41104139999999,
      "Longitude": -87.2093412,
      "Address": "204 S Alcaniz St, Pensacola, FL 32502, EE. UU.",
      "Phone": "(850) 432-3050",
      "Website": "https://pensacolahistoricpreservationsociety.com/quinahouse",
      "City": "Pensacola"
    },
    {
      "Name": "Parque Bay Bluffs",
      "Latitude": 30.45511870000001,
      "Longitude": -87.1684993,
      "Address": "3400 pintorescos autopista, Pensacola, FL 32503, EE. UU.",
      "Phone": "(850) 435-1603",
      "Website": "http://cityofpensacola.com/facilities/facility/details/bay-bluffs-preserve-18",
      "City": "Pensacola"
    },
    {
      "Name": "Salón de comedor de Pensacola",
      "Latitude": 30.418049,
      "Longitude": -87.210194,
      "Address": "418 E Wright St, Pensacola, FL 32502, EE. UU.",
      "Phone": "(877) 937-6377",
      "Website": "http://www.pensacolamesshall.org/",
      "City": "Pensacola"
    },
    {
      "Name": "Ferry de la ciudad de Pensacola Bay",
      "Latitude": 30.405077,
      "Longitude": -87.2121877,
      "Address": "750 Commendencia St, Pensacola, FL 32502, EE. UU.",
      "Phone": "(850) 466-3379",
      "Website": "https://www.pensacolabaycityferry.com/",
      "City": "Pensacola"
    },
    {
      "Name": "Museo de la industria",
      "Latitude": 30.4089578,
      "Longitude": -87.2115541,
      "Address": "200 Zaragoza St, Pensacola, FL 32502, EE. UU.",
      "Phone": "(850) 595-5985",
      "Website": "http://historicpensacola.org/plan-your-visit/museums-properties/museum-of-industry/",
      "City": "Pensacola"
    },
    {
      "Name": "Pensacola",
      "Latitude": 30.42130899999999,
      "Longitude": -87.2169149,
      "Address": "Pensacola, FL 32501, EE. UU.",
      "Phone": "Desconocido",
      "Website": "https://www.visitpensacola.com/",
      "City": "Pensacola"
    },
    {
      "Name": "Museo de Pensacola Lighthouse & Maritime",
      "Latitude": 30.3460366,
      "Longitude": -87.3080825,
      "Address": "2081 Radford Blvd, Pensacola, FL 32508, EE. UU.",
      "Phone": "(850) 393-1561",
      "Website": "http://www.pensacolalighthouse.org/",
      "City": "Pensacola"
    },
    {
      "Name": "Splash City Adventures",
      "Latitude": 30.4880556,
      "Longitude": -87.2616667,
      "Address": "6709 Pensacola Blvd, Pensacola, FL 32505, EE. UU.",
      "Phone": "(850) 505-0800",
      "Website": "http://splashcityadventure.com/",
      "City": "Pensacola"
    },
    {
      "Name": "Pensacola Aviation Discovery Park",
      "Latitude": 30.4715774,
      "Longitude": -87.18137349999999,
      "Address": "4200 Jerry L Maygarden Rd, Pensacola, FL 32504, EE. UU.",
      "Phone": "Desconocido",
      "Website": "Desconocido",
      "City": "Pensacola"
    },
    {
      "Name": "Plaza de Sevilla",
      "Latitude": 30.4094849,
      "Longitude": -87.2097321,
      "Address": "311 E Gobierno ST, Pensacola, FL 32502, EE. UU.",
      "Phone": "(850) 436-5670",
      "Website": "http://www.ci.pensacola.fl.us/",
      "City": "Pensacola"
    },
    {
      "Name": "Los globos gemelos",
      "Latitude": 30.4597979,
      "Longitude": -87.164964,
      "Address": "3700 pintorescos Hwy, Pensacola, FL 32504, EE. UU.",
      "Phone": "Desconocido",
      "Website": "Desconocido",
      "City": "Pensacola"
    },
    {
      "Name": "Fort Pickens",
      "Latitude": 30.327303,
      "Longitude": -87.290514,
      "Address": "1400 Fort Pickens Rd, Pensacola Beach, FL 32561, EE. UU.",
      "Phone": "Desconocido",
      "Website": "https://www.nps.gov/guis/planyourvisit/fort-pickens-area.htm",
      "City": "Pensacola"
    }
  ],
  "Restaurants in Pensacola": [
    {
      "Name": "Taberna Hollow Hollow",
      "Average Cost": 20,
      "Cuisines": "Americano, BBQ, Fast Food, Cafe, Indian",
      "Aggregate Rating": 4.3,
      "City": "Pensacola"
    },
    {
      "Name": "Restaurante de parche de bayas",
      "Average Cost": 13,
      "Cuisines": "Panadería, barbacoa, postres, mariscos",
      "Aggregate Rating": 4.3,
      "City": "Pensacola"
    },
    {
      "Name": "Bailey's Bar-B-Que",
      "Average Cost": 13,
      "Cuisines": "Té, panadería, mediterráneo",
      "Aggregate Rating": 4.1,
      "City": "Pensacola"
    },
    {
      "Name": "Cafetería de cuenca",
      "Average Cost": 12,
      "Cuisines": "Chino, barbacoa, postres",
      "Aggregate Rating": 3.7,
      "City": "Pensacola"
    },
    {
      "Name": "Parrilla azul",
      "Average Cost": 75,
      "Cuisines": "Francés, indio, café, postres",
      "Aggregate Rating": 4,
      "City": "Pensacola"
    },
    {
      "Name": "Pizza de Chicago",
      "Average Cost": 32,
      "Cuisines": "Pizza, mediterráneo, comida rápida",
      "Aggregate Rating": 2.7,
      "City": "Pensacola"
    },
    {
      "Name": "Fantasma",
      "Average Cost": 94,
      "Cuisines": "Postres, pizza, café, mediterráneo, mariscos",
      "Aggregate Rating": 3.5,
      "City": "Pensacola"
    },
    {
      "Name": "Fruitpro",
      "Average Cost": 95,
      "Cuisines": "Té, café, pizza, postres",
      "Aggregate Rating": 0,
      "City": "Pensacola"
    },
    {
      "Name": "Restaurante kwality",
      "Average Cost": 29,
      "Cuisines": "Postres, té, francés, comida rápida, chino",
      "Aggregate Rating": 0,
      "City": "Pensacola"
    },
    {
      "Name": "Nukkad",
      "Average Cost": 100,
      "Cuisines": "Té, café, estadounidense, italiano",
      "Aggregate Rating": 3.6,
      "City": "Pensacola"
    },
    {
      "Name": "Comida del sur de la India y China de Keventer",
      "Average Cost": 32,
      "Cuisines": "Barbacoa, comida rápida",
      "Aggregate Rating": 2.8,
      "City": "Pensacola"
    },
    {
      "Name": "Café jainista",
      "Average Cost": 41,
      "Cuisines": "Café, indio, mediterráneo, barbacoa",
      "Aggregate Rating": 4.1,
      "City": "Pensacola"
    },
    {
      "Name": "Kathi Kabab de Nizam",
      "Average Cost": 32,
      "Cuisines": "Postres, barbacoa, comida rápida, estadounidense, mediterráneo",
      "Aggregate Rating": 3.8,
      "City": "Pensacola"
    },
    {
      "Name": "Restaurante Kalpana",
      "Average Cost": 36,
      "Cuisines": "Té, café, panadería, estadounidense",
      "Aggregate Rating": 3.2,
      "City": "Pensacola"
    },
    {
      "Name": "Eggspectation - Jaypee Siddharth",
      "Average Cost": 25,
      "Cuisines": "Café, barbacoa, italiano",
      "Aggregate Rating": 3.5,
      "City": "Pensacola"
    },
    {
      "Name": "Sigot",
      "Average Cost": 66,
      "Cuisines": "China, panadería, mariscos",
      "Aggregate Rating": 3.1,
      "City": "Pensacola"
    },
    {
      "Name": "El centro de medianoche - C",
      "Average Cost": 32,
      "Cuisines": "Té, pizza, panadería, barbacoa, chino",
      "Aggregate Rating": 2.6,
      "City": "Pensacola"
    },
    {
      "Name": "Shama Muradabadi",
      "Average Cost": 93,
      "Cuisines": "Postres, indio, barbacoa",
      "Aggregate Rating": 0,
      "City": "Pensacola"
    },
    {
      "Name": "Paapi Paet",
      "Average Cost": 96,
      "Cuisines": "Café, Mediterráneo, comida rápida",
      "Aggregate Rating": 3.3,
      "City": "Pensacola"
    },
    {
      "Name": "Jyoti dhaba",
      "Average Cost": 11,
      "Cuisines": "Té, panadería, comida rápida",
      "Aggregate Rating": 0,
      "City": "Pensacola"
    },
    {
      "Name": "Restaurante Shree Vinayaga",
      "Average Cost": 55,
      "Cuisines": "Postres, té, pizza, francés, café",
      "Aggregate Rating": 0,
      "City": "Pensacola"
    },
    {
      "Name": "Comida rápida china Prem",
      "Average Cost": 89,
      "Cuisines": "Té, panadería, mediterráneo, postres",
      "Aggregate Rating": 0,
      "City": "Pensacola"
    },
    {
      "Name": "Carne fresca co",
      "Average Cost": 82,
      "Cuisines": "Francés, mariscos, postres, italiano",
      "Aggregate Rating": 0,
      "City": "Pensacola"
    },
    {
      "Name": "Bosque",
      "Average Cost": 56,
      "Cuisines": "Mexicano, barbacoa, postres",
      "Aggregate Rating": 0,
      "City": "Pensacola"
    },
    {
      "Name": "Shree Balaji Bhojnalaya",
      "Average Cost": 93,
      "Cuisines": "Comida rápida, mariscos, mexicano, italiano",
      "Aggregate Rating": 0,
      "City": "Pensacola"
    },
    {
      "Name": "Krispy Kitchen",
      "Average Cost": 78,
      "Cuisines": "Comida rápida, panadería, postres, italiano",
      "Aggregate Rating": 0,
      "City": "Pensacola"
    },
    {
      "Name": "Solo verduras",
      "Average Cost": 59,
      "Cuisines": "Café, postres, comida rápida",
      "Aggregate Rating": 0,
      "City": "Pensacola"
    },
    {
      "Name": "Código",
      "Average Cost": 29,
      "Cuisines": "Francés, panadería, indio, comida rápida",
      "Aggregate Rating": 2.5,
      "City": "Pensacola"
    },
    {
      "Name": "Servicio Satguru Tiffin",
      "Average Cost": 50,
      "Cuisines": "Americano, BBQ, mariscos",
      "Aggregate Rating": 0,
      "City": "Pensacola"
    },
    {
      "Name": "Cocina kayasth",
      "Average Cost": 69,
      "Cuisines": "Postres, café, barbacoa, comida rápida, chino, estadounidense",
      "Aggregate Rating": 0,
      "City": "Pensacola"
    },
    {
      "Name": "Cabaña del sur de la India",
      "Average Cost": 48,
      "Cuisines": "Té, mariscos, comida rápida",
      "Aggregate Rating": 3.4,
      "City": "Pensacola"
    },
    {
      "Name": "Takeaway de Saleem",
      "Average Cost": 37,
      "Cuisines": "Chino, postres, comida rápida, café, mariscos",
      "Aggregate Rating": 2.6,
      "City": "Pensacola"
    },
    {
      "Name": "Centro de hambre",
      "Average Cost": 76,
      "Cuisines": "Comida rápida, india, barbacoa, mariscos",
      "Aggregate Rating": 0,
      "City": "Pensacola"
    },
    {
      "Name": "Swad E Punjab",
      "Average Cost": 80,
      "Cuisines": "Pizza, panadería, café, estadounidense, mariscos",
      "Aggregate Rating": 0,
      "City": "Pensacola"
    },
    {
      "Name": "Sweets de Mithaas",
      "Average Cost": 86,
      "Cuisines": "Pizza, panadería, barbacoa, café, indio, mediterráneo",
      "Aggregate Rating": 3.1,
      "City": "Pensacola"
    },
    {
      "Name": "El Fuente Belga Beer Cafe",
      "Average Cost": 89,
      "Cuisines": "American, BBQ, comida rápida",
      "Aggregate Rating": 2.3,
      "City": "Pensacola"
    },
    {
      "Name": "Hamburguesas de octubre",
      "Average Cost": 33,
      "Cuisines": "Pizza, postres, comida rápida",
      "Aggregate Rating": 4.5,
      "City": "Pensacola"
    },
    {
      "Name": "Gaga Manjero",
      "Average Cost": 17,
      "Cuisines": "Té, postres, pizza, barbacoa",
      "Aggregate Rating": 4.9,
      "City": "Pensacola"
    }
  ],
  "Accommodations in Pensacola": [
    {
      "NAME": "Encantador de un dormitorio apto en Les/Chinatown",
      "price": 430,
      "room type": "Casa entera/apto",
      "house_rules": "No hay fiestas ni niños menores de 10 años",
      "minimum nights": 4,
      "maximum occupancy": 4,
      "review rate number": 1,
      "city": "Pensacola"
    },
    {
      "NAME": "Luxury East Village Penthouse con terraza privada",
      "price": 697,
      "room type": "Casa entera/apto",
      "house_rules": "No hay visitantes",
      "minimum nights": 2,
      "maximum occupancy": 6,
      "review rate number": 3,
      "city": "Pensacola"
    },
    {
      "NAME": "¡Increíble apartamento cerca de Museum, Gardens & Park!",
      "price": 74,
      "room type": "Casa entera/apto",
      "house_rules": "No hay fiestas",
      "minimum nights": 17,
      "maximum occupancy": 3,
      "review rate number": 5,
      "city": "Pensacola"
    },
    {
      "NAME": "Acogedor apartamento de 1 habitación a 2 cuadras del metro",
      "price": 339,
      "room type": "Casa entera/apto",
      "house_rules": "No hay fiestas",
      "minimum nights": 2,
      "maximum occupancy": 3,
      "review rate number": 4,
      "city": "Pensacola"
    },
    {
      "NAME": "Increíble apartamento 2BR ¡Elevry/lavandería!",
      "price": 56,
      "room type": "Casa entera/apto",
      "house_rules": "No hay fiestas y no hay niños menores de 10 años y sin mascotas",
      "minimum nights": 30,
      "maximum occupancy": 2,
      "review rate number": 4,
      "city": "Pensacola"
    },
    {
      "NAME": "Chic Historic Harlem Brownstone",
      "price": 526,
      "room type": "Casa entera/apto",
      "house_rules": "No Fumar",
      "minimum nights": 3,
      "maximum occupancy": 2,
      "review rate number": 4,
      "city": "Pensacola"
    },
    {
      "NAME": "Habitación limpia y acogedora de Brooklyn en apartamento artístico",
      "price": 514,
      "room type": "Habitación privada",
      "house_rules": "Sin mascotas",
      "minimum nights": 1,
      "maximum occupancy": 1,
      "review rate number": 3,
      "city": "Pensacola"
    },
    {
      "NAME": "Apartamento de la construcción estatal de Empire",
      "price": 662,
      "room type": "Casa entera/apto",
      "house_rules": "No fumar ni visitantes",
      "minimum nights": 7,
      "maximum occupancy": 2,
      "review rate number": 5,
      "city": "Pensacola"
    },
    {
      "NAME": "1d privado RM en la casa de huéspedes Manhattan",
      "price": 378,
      "room type": "Habitación privada",
      "house_rules": "No hay visitantes ni fiestas",
      "minimum nights": 1,
      "maximum occupancy": 1,
      "review rate number": 3,
      "city": "Pensacola"
    },
    {
      "NAME": "Apartamento elegante y acogedor de East Village de 2 dormitorios",
      "price": 1036,
      "room type": "Casa entera/apto",
      "house_rules": "No hay fiestas",
      "minimum nights": 1,
      "maximum occupancy": 5,
      "review rate number": 4,
      "city": "Pensacola"
    },
    {
      "NAME": "Habitación cómoda",
      "price": 92,
      "room type": "Habitación privada",
      "house_rules": "No hay fiestas y sin fumar y sin mascotas",
      "minimum nights": 4,
      "maximum occupancy": 1,
      "review rate number": 2,
      "city": "Pensacola"
    },
    {
      "NAME": "Amplio 1br para refugio en dúplex con cubierta",
      "price": 1050,
      "room type": "Habitación privada",
      "house_rules": "No hay fiestas",
      "minimum nights": 7,
      "maximum occupancy": 2,
      "review rate number": 2,
      "city": "Pensacola"
    }
  ],
  "Flight from Kansas City to Pensacola on 2022-03-27": "No hay vuelo de Kansas City a Pensacola el 2022-03-27.",
  "Self-driving from Kansas City to Pensacola": "Conducción autónoma, desde Kansas City hasta Pensacola, Duración: 14 horas 4 minutos, distancia: 1,433 km, Costo: 71",
  "Taxi from Kansas City to Pensacola": "Taxi, de Kansas City a Pensacola, Duración: 14 horas 4 minutos, distancia: 1,433 km, Costo: 1433",
  "Flight from Pensacola to Kansas City on 2022-03-29": "No hay vuelo de Pensacola a Kansas City el 2022-03-29.",
  "Self-driving from Pensacola to Kansas City": "Conductor autónomo, desde Pensacola hasta Kansas City, Duración: 14 horas 0 minutos, Distancia: 1,447 km, Costo: 72",
  "Taxi from Pensacola to Kansas City": "Taxi, desde Pensacola hasta Kansas City, Duración: 14 horas 0 minutos, distancia: 1,447 km, Costo: 1447",
  "Attractions in Stockton": [
    {
      "Name": "Museo para Niños, Stockton",
      "Latitude": 37.9519756,
      "Longitude": -121.2967856,
      "Address": "402 W Weber Ave, Stockton, CA 95203, EE. UU.",
      "Phone": "(209) 465-4386",
      "Website": "https://www.childrensmuseumstockton.org/",
      "City": "Stockton"
    },
    {
      "Name": "Museo Haggin",
      "Latitude": 37.9605722,
      "Longitude": -121.3138609,
      "Address": "1201 N Pershing Ave, Stockton, CA 95203, EE. UU.",
      "Phone": "(209) 940-6300",
      "Website": "http://www.hagginmuseum.org/",
      "City": "Stockton"
    },
    {
      "Name": "Parque de Louis",
      "Latitude": 37.9558644,
      "Longitude": -121.3464878,
      "Address": "3121 Monte Diablo Ave, Stockton, CA 95203, EE. UU.",
      "Phone": "(209) 937-8206",
      "Website": "http://www.stocktonongov.com/",
      "City": "Stockton"
    },
    {
      "Name": "Torre de agua de Stockton",
      "Latitude": 37.956838,
      "Longitude": -121.3185108,
      "Address": "811 Buena Vista Ave, Stockton, CA 95203, USA",
      "Phone": "Desconocido",
      "Website": "Desconocido",
      "City": "Stockton"
    },
    {
      "Name": "Milla milagrosa",
      "Latitude": 37.9717771,
      "Longitude": -121.30132,
      "Address": "221 Tuxedo CT, Stockton, CA 95204, EE. UU.",
      "Phone": "(209) 623-1144",
      "Website": "http://www.stocktonmiraclemile.com/",
      "City": "Stockton"
    },
    {
      "Name": "Parque Buckley Cove",
      "Latitude": 37.9748014,
      "Longitude": -121.3756927,
      "Address": "Buckley Cove Way, Stockton, CA 95219, EE. UU.",
      "Phone": "(209) 937-8539",
      "Website": "Desconocido",
      "City": "Stockton"
    },
    {
      "Name": "Wat Dhammararam Templo budista",
      "Latitude": 37.9243986,
      "Longitude": -121.2251909,
      "Address": "3732 Carpenter RD, Stockton, CA 95215, EE. UU.",
      "Phone": "(209) 943-2883",
      "Website": "http://www.watdhammararambuddhist.org",
      "City": "Stockton"
    },
    {
      "Name": "Promenado de Joan Darrah",
      "Latitude": 37.95318710000001,
      "Longitude": -121.2931709,
      "Address": "W Weber Ave, Stockton, CA 95202, EE. UU.",
      "Phone": "Desconocido",
      "Website": "Desconocido",
      "City": "Stockton"
    },
    {
      "Name": "Crossing de ferrocarril de Diamond de Stockton",
      "Latitude": 37.9467542,
      "Longitude": -121.2758804,
      "Address": "796 S Sacramento St, Stockton, CA 95205, EE. UU.",
      "Phone": "Desconocido",
      "Website": "Desconocido",
      "City": "Stockton"
    },
    {
      "Name": "Parque Legion Americano",
      "Latitude": 37.9680472,
      "Longitude": -121.3080513,
      "Address": "Stockton, CA 95204, EE. UU.",
      "Phone": "(209) 937-8206",
      "Website": "http://www.stocktonongov.com/services/parkrec/default.html",
      "City": "Stockton"
    },
    {
      "Name": "Centro de patrimonio mexicano y galería",
      "Latitude": 37.9522222,
      "Longitude": -121.2858333,
      "Address": "111 S Sutter St, Stockton, CA 95206, EE. UU.",
      "Phone": "(209) 969-9306",
      "Website": "http://www.mexicanheritageCenter.org/",
      "City": "Stockton"
    },
    {
      "Name": "Visita Stockton",
      "Latitude": 37.9528632,
      "Longitude": -121.2937217,
      "Address": "146 W Weber Ave, Stockton, CA 95202, EE. UU.",
      "Phone": "(209) 938-1555",
      "Website": "http://www.visitstockton.org/",
      "City": "Stockton"
    },
    {
      "Name": "Crossing de ferrocarril de diamantes superior de Stockton",
      "Latitude": 37.96859329999999,
      "Longitude": -121.2693805,
      "Address": "Stockton, CA 95205, EE. UU.",
      "Phone": "Desconocido",
      "Website": "Desconocido",
      "City": "Stockton"
    },
    {
      "Name": "Museo de Aviación de Field de Stockton",
      "Latitude": 37.8907085,
      "Longitude": -121.2427084,
      "Address": "7430 C E Dixon ST, Stockton, CA 95206, EE. UU.",
      "Phone": "(209) 982-0273",
      "Website": "http://www.stocktonfieldmuseum.org/",
      "City": "Stockton"
    },
    {
      "Name": "Parque Sousa",
      "Latitude": 37.9576352,
      "Longitude": -121.2487092,
      "Address": "2829 Yellowstone Ave, Stockton, CA 95205, EE. UU.",
      "Phone": "(209) 937-8206",
      "Website": "http://www.stocktonongov.com/government/departments/publicworks/contactus.html",
      "City": "Stockton"
    },
    {
      "Name": "Arena de Stockton",
      "Latitude": 37.9561651,
      "Longitude": -121.2960735,
      "Address": "248 W Fremont St, Stockton, CA 95203, EE. UU.",
      "Phone": "(209) 373-1400",
      "Website": "http://stocktonlive.com/",
      "City": "Stockton"
    },
    {
      "Name": "Parque Regional Shumway Oak Grove",
      "Latitude": 38.0574996,
      "Longitude": -121.3638536,
      "Address": "4520 W ocho millas Rd, Stockton, CA 95209, EE. UU.",
      "Phone": "(209) 953-8800",
      "Website": "http://www.sjparks.com/parks/oakgrove-regional-park.aspx",
      "City": "Stockton"
    },
    {
      "Name": "Parque de Garrigan",
      "Latitude": 38.04405,
      "Longitude": -121.36532,
      "Address": "3690 Iron Canyon Cir, Stockton, CA 95209, EE. UU.",
      "Phone": "(209) 937-8411",
      "Website": "http://www.stocktonongov.com/government/departments/publicworks/contactus.html",
      "City": "Stockton"
    },
    {
      "Name": "Parque de gibbons",
      "Latitude": 38.0218141,
      "Longitude": -121.3371861,
      "Address": "Stockton, CA 95209, EE. UU.",
      "Phone": "Desconocido",
      "Website": "Desconocido",
      "City": "Stockton"
    },
    {
      "Name": "Museo filipino de la Sociedad Histórica Nacional Americana",
      "Latitude": 37.9545233,
      "Longitude": -121.2865715,
      "Address": "337 E Weber Ave, Stockton, CA 95202, EE. UU.",
      "Phone": "(209) 932-9037",
      "Website": "http://fanhsmuseum.com/",
      "City": "Stockton"
    }
  ],
  "Restaurants in Stockton": [
    {
      "Name": "Choo Choo Eastside",
      "Average Cost": 40,
      "Cuisines": "Té, chino, panadería",
      "Aggregate Rating": 3.9,
      "City": "Stockton"
    },
    {
      "Name": "Restaurante italiano de Biaggi",
      "Average Cost": 20,
      "Cuisines": "Francés, panadería, café, mariscos",
      "Aggregate Rating": 4.1,
      "City": "Stockton"
    },
    {
      "Name": "Familia de sushi",
      "Average Cost": 72,
      "Cuisines": "Panadería, pizza, café",
      "Aggregate Rating": 3.6,
      "City": "Stockton"
    },
    {
      "Name": "Veinticuatro siete",
      "Average Cost": 92,
      "Cuisines": "Postres, té, italiano, barbacoa, comida rápida, estadounidense",
      "Aggregate Rating": 3.4,
      "City": "Stockton"
    },
    {
      "Name": "Hermanos gemelos",
      "Average Cost": 32,
      "Cuisines": "Té, pizza, francés, panadería, mariscos",
      "Aggregate Rating": 0,
      "City": "Stockton"
    },
    {
      "Name": "Dimse & Co.",
      "Average Cost": 40,
      "Cuisines": "China, panadería, barbacoa, mariscos",
      "Aggregate Rating": 3.9,
      "City": "Stockton"
    },
    {
      "Name": "Pizza mecánica",
      "Average Cost": 47,
      "Cuisines": "Pizza, barbacoa, mediterráneo",
      "Aggregate Rating": 3.5,
      "City": "Stockton"
    },
    {
      "Name": "Barista",
      "Average Cost": 77,
      "Cuisines": "Café, mexicano, panadería, mariscos",
      "Aggregate Rating": 0,
      "City": "Stockton"
    },
    {
      "Name": "Hotel Radhakrishna",
      "Average Cost": 63,
      "Cuisines": "Postres, italiano, panadería, comida rápida, mariscos",
      "Aggregate Rating": 3.5,
      "City": "Stockton"
    },
    {
      "Name": "High Street Kitchen & Bar",
      "Average Cost": 100,
      "Cuisines": "Postres, té, mexicano, barbacoa, comida rápida, mediterráneo",
      "Aggregate Rating": 2.9,
      "City": "Stockton"
    },
    {
      "Name": "Muffins",
      "Average Cost": 26,
      "Cuisines": "Mariscos, postres, italiano",
      "Aggregate Rating": 3.5,
      "City": "Stockton"
    },
    {
      "Name": "China continental",
      "Average Cost": 38,
      "Cuisines": "Té, barbacoa, mediterráneo",
      "Aggregate Rating": 3.7,
      "City": "Stockton"
    },
    {
      "Name": "Pizza de la historia del horno",
      "Average Cost": 81,
      "Cuisines": "Panadería, estadounidense, comida rápida",
      "Aggregate Rating": 3.3,
      "City": "Stockton"
    },
    {
      "Name": "Aggarwal Sweet Corner & Restaurant",
      "Average Cost": 33,
      "Cuisines": "Té, mariscos, pizza, italiano",
      "Aggregate Rating": 2.6,
      "City": "Stockton"
    },
    {
      "Name": "Romper la unión rápida",
      "Average Cost": 46,
      "Cuisines": "Comida rápida, pizza, panadería, italiano",
      "Aggregate Rating": 0,
      "City": "Stockton"
    },
    {
      "Name": "Dedo licioso",
      "Average Cost": 50,
      "Cuisines": "Postres, té, pizza, italiano, café",
      "Aggregate Rating": 3.4,
      "City": "Stockton"
    },
    {
      "Name": "Veggie Adda",
      "Average Cost": 85,
      "Cuisines": "Postres, American, BBQ, Comida rápida",
      "Aggregate Rating": 3.4,
      "City": "Stockton"
    },
    {
      "Name": "La hoja dorada",
      "Average Cost": 34,
      "Cuisines": "Té, francés, chino, comida rápida",
      "Aggregate Rating": 3,
      "City": "Stockton"
    },
    {
      "Name": "El tandoor azul",
      "Average Cost": 16,
      "Cuisines": "Café, estadounidense, mariscos",
      "Aggregate Rating": 2.6,
      "City": "Stockton"
    },
    {
      "Name": "Aayush Food Plaza",
      "Average Cost": 70,
      "Cuisines": "Té, francés, pizza, italiano",
      "Aggregate Rating": 2.9,
      "City": "Stockton"
    },
    {
      "Name": "Nand bhai chholy bhature",
      "Average Cost": 33,
      "Cuisines": "Té, panadería, barbacoa, estadounidense, mariscos",
      "Aggregate Rating": 0,
      "City": "Stockton"
    },
    {
      "Name": "Punjabi está comiendo un centro",
      "Average Cost": 45,
      "Cuisines": "Té, chino, panadería, postres",
      "Aggregate Rating": 3.3,
      "City": "Stockton"
    },
    {
      "Name": "Veinticuatro siete",
      "Average Cost": 70,
      "Cuisines": "Postres, té, comida rápida, indio, mediterráneo",
      "Aggregate Rating": 0,
      "City": "Stockton"
    },
    {
      "Name": "Metro",
      "Average Cost": 58,
      "Cuisines": "Café, mexicano, panadería, comida rápida",
      "Aggregate Rating": 2.6,
      "City": "Stockton"
    },
    {
      "Name": "Gola Sizzlers",
      "Average Cost": 45,
      "Cuisines": "Té, mediterráneo, postres, italiano",
      "Aggregate Rating": 3.3,
      "City": "Stockton"
    },
    {
      "Name": "Zaika de Dilli 6",
      "Average Cost": 70,
      "Cuisines": "Postres, pizza, comida rápida, indio, mariscos",
      "Aggregate Rating": 0,
      "City": "Stockton"
    },
    {
      "Name": "Wok en llamas",
      "Average Cost": 26,
      "Cuisines": "Postres, té, italiano, barbacoa, comida rápida, chino",
      "Aggregate Rating": 3.7,
      "City": "Stockton"
    }
  ],
  "Accommodations in Stockton": [
    {
      "NAME": "¡Waterfront, perfecta escapada de Nueva York!",
      "price": 607,
      "room type": "Casa entera/apto",
      "house_rules": "No hay fiestas ni niños menores de 10 años",
      "minimum nights": 2,
      "maximum occupancy": 6,
      "review rate number": 4,
      "city": "Stockton"
    },
    {
      "NAME": "Hermosa habitación de Brooklyn con decoración de lujo",
      "price": 920,
      "room type": "Habitación privada",
      "house_rules": "No hay niños menores de 10 años y no mascotas y sin fumar",
      "minimum nights": 2,
      "maximum occupancy": 2,
      "review rate number": 4,
      "city": "Stockton"
    },
    {
      "NAME": "habitación moderna privada (a largo plazo 1 mes o más)",
      "price": 486,
      "room type": "Habitación privada",
      "house_rules": "No hay fiestas",
      "minimum nights": 2,
      "maximum occupancy": 1,
      "review rate number": 2,
      "city": "Stockton"
    },
    {
      "NAME": "¡Amplio 2 bdr apt brooklyn duerme 8!",
      "price": 1072,
      "room type": "Casa entera/apto",
      "house_rules": "No hay visitantes",
      "minimum nights": 2,
      "maximum occupancy": 5,
      "review rate number": 3,
      "city": "Stockton"
    },
    {
      "NAME": "Lujoso loft de Williamsburg con patio privado",
      "price": 950,
      "room type": "Casa entera/apto",
      "house_rules": "No Pets y No Visitantes y No Niños menores de 10 años",
      "minimum nights": 5,
      "maximum occupancy": 2,
      "review rate number": 5,
      "city": "Stockton"
    },
    {
      "NAME": "Oasis de Greenpoint",
      "price": 170,
      "room type": "Casa entera/apto",
      "house_rules": "No hay niños menores de 10",
      "minimum nights": 365,
      "maximum occupancy": 3,
      "review rate number": 3,
      "city": "Stockton"
    },
    {
      "NAME": "Private Apt 2Br/1 Bath/Kitchen/Estacionamiento en nuestra casa",
      "price": 420,
      "room type": "Casa entera/apto",
      "house_rules": "Sin mascotas",
      "minimum nights": 1,
      "maximum occupancy": 4,
      "review rate number": 2,
      "city": "Stockton"
    },
    {
      "NAME": "Mi casa premium de 1 dormitorio en el Upper East Side",
      "price": 444,
      "room type": "Casa entera/apto",
      "house_rules": "Sin mascotas",
      "minimum nights": 3,
      "maximum occupancy": 2,
      "review rate number": 4,
      "city": "Stockton"
    },
    {
      "NAME": "Amueblado de una habitación en Midtown West.",
      "price": 279,
      "room type": "Casa entera/apto",
      "house_rules": "No hay fiestas",
      "minimum nights": 30,
      "maximum occupancy": 3,
      "review rate number": 2,
      "city": "Stockton"
    },
    {
      "NAME": "Habitación privada y baño en apartamento brillante",
      "price": 1081,
      "room type": "Habitación privada",
      "house_rules": "No fumar y no niños menores de 10 años",
      "minimum nights": 2,
      "maximum occupancy": 1,
      "review rate number": 1,
      "city": "Stockton"
    },
    {
      "NAME": "¡Completa acogedor en medio de Manhattan!",
      "price": 455,
      "room type": "Casa entera/apto",
      "house_rules": "No hay fiestas",
      "minimum nights": 4,
      "maximum occupancy": 3,
      "review rate number": 1,
      "city": "Stockton"
    },
    {
      "NAME": "Acogedor dormitorio completo con fuerte",
      "price": 484,
      "room type": "Habitación privada",
      "house_rules": "No hay fiestas",
      "minimum nights": 3,
      "maximum occupancy": 1,
      "review rate number": 2,
      "city": "Stockton"
    }
  ],
  "Flight from Las Vegas to Stockton on 2022-03-03": [
    {
      "Flight Number": "F3576711",
      "Price": 96,
      "DepTime": "06:01",
      "ArrTime": "07:28",
      "ActualElapsedTime": "1 horas 27 minutos",
      "FlightDate": "2022-03-03",
      "OriginCityName": "Las Vegas",
      "DestCityName": "Stockton",
      "Distance": 359
    },
    {
      "Flight Number": "F3580830",
      "Price": 91,
      "DepTime": "20:08",
      "ArrTime": "21:30",
      "ActualElapsedTime": "1 horas 22 minutos",
      "FlightDate": "2022-03-03",
      "OriginCityName": "Las Vegas",
      "DestCityName": "Stockton",
      "Distance": 359
    }
  ],
  "Self-driving from Las Vegas to Stockton": "Autocontrol, desde Las Vegas hasta Stockton, Duración: 7 horas 46 minutos, distancia: 835 km, costo: 41",
  "Taxi from Las Vegas to Stockton": "Taxi, de Las Vegas a Stockton, Duración: 7 horas 46 minutos, distancia: 835 km, costo: 835",
  "Flight from Stockton to Las Vegas on 2022-03-05": [
    {
      "Flight Number": "F3576850",
      "Price": 165,
      "DepTime": "13:42",
      "ArrTime": "15:03",
      "ActualElapsedTime": "1 horas 21 minutos",
      "FlightDate": "2022-03-05",
      "OriginCityName": "Stockton",
      "DestCityName": "Las Vegas",
      "Distance": 359
    }
  ],
  "Self-driving from Stockton to Las Vegas": "Autocontrato, de Stockton a Las Vegas, Duración: 7 horas 50 minutos, Distancia: 836 km, Costo: 41",
  "Taxi from Stockton to Las Vegas": "Taxi, de Stockton a Las Vegas, Duración: 7 horas 50 minutos, distancia: 836 km, costo: 836",
  "Attractions in Louisville": [
    {
      "Name": "Mega Caverna de Louisville",
      "Latitude": 38.2012259,
      "Longitude": -85.703929,
      "Address": "1841 Taylor Ave, Louisville, KY 40213, EE. UU.",
      "Phone": "(877) 614-6342",
      "Website": "https://louisvillemegacavern.com/",
      "City": "Louisville"
    },
    {
      "Name": "Museo y fábrica de Louisville Slugger",
      "Latitude": 38.25713559999999,
      "Longitude": -85.7639796,
      "Address": "800 W Main St, Louisville, KY 40202, EE. UU.",
      "Phone": "(877) 775-8443",
      "Website": "http://www.sluggermuseum.com/",
      "City": "Louisville"
    },
    {
      "Name": "Centro de Ciencias de Kentucky",
      "Latitude": 38.2576145,
      "Longitude": -85.76265699999999,
      "Address": "727 W Main St, Louisville, KY 40202, EE. UU.",
      "Phone": "(502) 561-6100",
      "Website": "http://www.kysciencecenter.org/",
      "City": "Louisville"
    },
    {
      "Name": "Zoológico de Louisville",
      "Latitude": 38.2057299,
      "Longitude": -85.7071264,
      "Address": "1100 Trevilian Way, Louisville, KY 40213, EE. UU.",
      "Phone": "(502) 459-2181",
      "Website": "https://louisvillezoo.org/",
      "City": "Louisville"
    },
    {
      "Name": "Museo de Historia Frazier",
      "Latitude": 38.2577529,
      "Longitude": -85.7644972,
      "Address": "829 W Main St, Louisville, KY 40202, EE. UU.",
      "Phone": "(502) 753-5663",
      "Website": "http://www.frazieriermuseum.org/",
      "City": "Louisville"
    },
    {
      "Name": "El sanatorio de Waverly Hills",
      "Latitude": 38.1301221,
      "Longitude": -85.8416929,
      "Address": "4400 Paralee Dr, Louisville, KY 40272, EE. UU.",
      "Phone": "(502) 690-7880",
      "Website": "http://www.therealwaverlyhills.com/",
      "City": "Louisville"
    },
    {
      "Name": "Museo de Derby de Kentucky",
      "Latitude": 38.2054621,
      "Longitude": -85.7710699,
      "Address": "704 Central Ave, Louisville, KY 40208, EE. UU.",
      "Phone": "(502) 637-1111",
      "Website": "http://www.derbymuseum.org/",
      "City": "Louisville"
    },
    {
      "Name": "Parque cherokee",
      "Latitude": 38.2399656,
      "Longitude": -85.6993663,
      "Address": "745 Cochran Hill Rd, Louisville, KY 40206, EE. UU.",
      "Phone": "(502) 574-7275",
      "Website": "https://louisvilleky.gov/government/parks/park-list/cerokee-park",
      "City": "Louisville"
    },
    {
      "Name": "Tranvía de la ciudad",
      "Latitude": 38.2580913,
      "Longitude": -85.75648559999999,
      "Address": "140 N Fourth St, Louisville, KY 40202, EE. UU.",
      "Phone": "(502) 939-3415",
      "Website": "https://trolleydeville.com/",
      "City": "Louisville"
    },
    {
      "Name": "Churchill Downs",
      "Latitude": 38.2037252,
      "Longitude": -85.77239879999999,
      "Address": "700 Central Ave, Louisville, KY 40208, EE. UU.",
      "Phone": "(502) 636-4400",
      "Website": "http://www.churchilldowns.com/",
      "City": "Louisville"
    },
    {
      "Name": "Museo de arte de velocidad",
      "Latitude": 38.2183706,
      "Longitude": -85.7609428,
      "Address": "2035 S 3rd St, Louisville, KY 40208, EE. UU.",
      "Phone": "(502) 634-2700",
      "Website": "http://www.speedmuseum.org/",
      "City": "Louisville"
    },
    {
      "Name": "Parque frente al mar",
      "Latitude": 38.26073890000001,
      "Longitude": -85.74260129999999,
      "Address": "129 River Rd, Louisville, KY 40202, EE. UU.",
      "Phone": "(502) 574-3768",
      "Website": "https://ourwaterfront.org/",
      "City": "Louisville"
    },
    {
      "Name": "Luces bajo Louisville",
      "Latitude": 38.2015141,
      "Longitude": -85.7040882,
      "Address": "1841 Taylor Ave, Louisville, KY 40213, EE. UU.",
      "Phone": "(877) 614-6342",
      "Website": "http://lightsunderlouisville.com/",
      "City": "Louisville"
    },
    {
      "Name": "Museo de la Casa Conrad-Caldwell",
      "Latitude": 38.2291479,
      "Longitude": -85.76342230000002,
      "Address": "1402 St James CT, Louisville, KY 40208, EE. UU.",
      "Phone": "(502) 636-5023",
      "Website": "http://conrad-caldwell.org/",
      "City": "Louisville"
    },
    {
      "Name": "Centro de Naturaleza de Louisville",
      "Latitude": 38.2096492,
      "Longitude": -85.7111025,
      "Address": "3745 Illinois Ave, Louisville, KY 40213, EE. UU.",
      "Phone": "(502) 458-1328",
      "Website": "http://louisvillenaturecenter.org/",
      "City": "Louisville"
    },
    {
      "Name": "Langosta",
      "Latitude": 38.28645400000001,
      "Longitude": -85.66138699999999,
      "Address": "561 Blankenbaker LN, Louisville, KY 40207, EE. UU.",
      "Phone": "(502) 897-9845",
      "Website": "http://www.locustgrove.org/",
      "City": "Louisville"
    },
    {
      "Name": "Centro Muhammad Ali",
      "Latitude": 38.25847619999999,
      "Longitude": -85.75980480000001,
      "Address": "144 N 6th St, Louisville, KY 40202, EE. UU.",
      "Phone": "(502) 584-9254",
      "Website": "https://alicenter.org/",
      "City": "Louisville"
    },
    {
      "Name": "Parque iroques",
      "Latitude": 38.1608222,
      "Longitude": -85.7803059,
      "Address": "2120 Rundill Rd, Louisville, KY 40214, EE. UU.",
      "Phone": "(502) 363-7766",
      "Website": "https://louisvilleky.gov/government/parks/park-list/iroquois-park",
      "City": "Louisville"
    },
    {
      "Name": "Nudo de Louisville",
      "Latitude": 38.257531,
      "Longitude": -85.7656208,
      "Address": "8 W Main St, Louisville, KY 40202, EE. UU.",
      "Phone": "Desconocido",
      "Website": "Desconocido",
      "City": "Louisville"
    },
    {
      "Name": "Museo de Arte Contemporáneo de KMAC",
      "Latitude": 38.257524,
      "Longitude": -85.762142,
      "Address": "715 W Main St, Louisville, KY 40202, EE. UU.",
      "Phone": "(502) 589-0102",
      "Website": "http://www.kmacmuseum.org/",
      "City": "Louisville"
    }
  ],
  "Restaurants in Louisville": [
    {
      "Name": "Alas salvajes de búfalo",
      "Average Cost": 22,
      "Cuisines": "Té, panadería, barbacoa, comida rápida, estadounidense",
      "Aggregate Rating": 3.4,
      "City": "Louisville"
    },
    {
      "Name": "Magnolias de acero",
      "Average Cost": 26,
      "Cuisines": "Italiano, mexicano, comida rápida, café, mariscos",
      "Aggregate Rating": 3.8,
      "City": "Louisville"
    },
    {
      "Name": "Sr. Idli Xpress",
      "Average Cost": 51,
      "Cuisines": "Café, Mediterráneo, comida rápida",
      "Aggregate Rating": 2.6,
      "City": "Louisville"
    },
    {
      "Name": "Bal Ji Rasoi",
      "Average Cost": 77,
      "Cuisines": "Mariscos, panadería, italiano",
      "Aggregate Rating": 0,
      "City": "Louisville"
    },
    {
      "Name": "Sangam Sweets",
      "Average Cost": 18,
      "Cuisines": "Panadería, pizza, café, postres",
      "Aggregate Rating": 2.5,
      "City": "Louisville"
    },
    {
      "Name": "Rincón de desayuno",
      "Average Cost": 46,
      "Cuisines": "Té, pizza, francés, panadería, café",
      "Aggregate Rating": 3.1,
      "City": "Louisville"
    },
    {
      "Name": "Rara dragón",
      "Average Cost": 21,
      "Cuisines": "Té, café, mediterráneo, comida rápida",
      "Aggregate Rating": 0,
      "City": "Louisville"
    },
    {
      "Name": "Restaurante QD",
      "Average Cost": 60,
      "Cuisines": "Mexicano, panadería, comida rápida, café, mariscos",
      "Aggregate Rating": 3.9,
      "City": "Louisville"
    },
    {
      "Name": "Bocadillos y más",
      "Average Cost": 59,
      "Cuisines": "Té, pizza, italiano, café, indio, mariscos",
      "Aggregate Rating": 0,
      "City": "Louisville"
    },
    {
      "Name": "McDonald's",
      "Average Cost": 33,
      "Cuisines": "Té, francés, pizza, italiano",
      "Aggregate Rating": 3.2,
      "City": "Louisville"
    },
    {
      "Name": "Panadería de janta",
      "Average Cost": 48,
      "Cuisines": "Té, comida rápida, mediterráneo, italiano",
      "Aggregate Rating": 3.6,
      "City": "Louisville"
    },
    {
      "Name": "Paradise de Sweets de Aggarwal",
      "Average Cost": 60,
      "Cuisines": "Té, francés, panadería, café",
      "Aggregate Rating": 2.7,
      "City": "Louisville"
    },
    {
      "Name": "Café Vikrant",
      "Average Cost": 86,
      "Cuisines": "Té, panadería, comida rápida, mediterráneo, mariscos",
      "Aggregate Rating": 3.3,
      "City": "Louisville"
    },
    {
      "Name": "Shri Bankey Bihari Brajwasi Rasgulle Wala",
      "Average Cost": 79,
      "Cuisines": "Té, café",
      "Aggregate Rating": 3.5,
      "City": "Louisville"
    },
    {
      "Name": "Chat de Vaishno Bhandar",
      "Average Cost": 48,
      "Cuisines": "Café, panadería, mariscos",
      "Aggregate Rating": 3.9,
      "City": "Louisville"
    },
    {
      "Name": "Zafrano",
      "Average Cost": 12,
      "Cuisines": "Postres, té, panadería, comida rápida, chino",
      "Aggregate Rating": 4.5,
      "City": "Louisville"
    },
    {
      "Name": "Orange Cafe & Restaurant",
      "Average Cost": 83,
      "Cuisines": "Postres, té, pizza, mexicano, barbacoa",
      "Aggregate Rating": 3.1,
      "City": "Louisville"
    },
    {
      "Name": "Nuevo Gaurav Dhaba",
      "Average Cost": 97,
      "Cuisines": "Postres, barbacoa, indio, mediterráneo, mariscos",
      "Aggregate Rating": 0,
      "City": "Louisville"
    },
    {
      "Name": "Peshawari",
      "Average Cost": 74,
      "Cuisines": "Té, pizza, barbacoa, postres",
      "Aggregate Rating": 3.6,
      "City": "Louisville"
    },
    {
      "Name": "Los héroes de medianoche",
      "Average Cost": 35,
      "Cuisines": "Postres, pizza, mexicano, estadounidense, mariscos",
      "Aggregate Rating": 3.6,
      "City": "Louisville"
    },
    {
      "Name": "Chocolacious por Wedcraft",
      "Average Cost": 22,
      "Cuisines": "Comida rápida, francés, indio, mariscos",
      "Aggregate Rating": 0,
      "City": "Louisville"
    },
    {
      "Name": "Restaurante Gayatri's Break Point",
      "Average Cost": 39,
      "Cuisines": "Mariscos, panadería, postres, comida rápida",
      "Aggregate Rating": 3.1,
      "City": "Louisville"
    },
    {
      "Name": "Restaurante de la familia Prerna",
      "Average Cost": 70,
      "Cuisines": "Café, estadounidense, mediterráneo, mariscos",
      "Aggregate Rating": 0,
      "City": "Louisville"
    },
    {
      "Name": "Roasters de Kenny Rogers",
      "Average Cost": 17,
      "Cuisines": "Té, pizza, italiano, café, indio, mariscos",
      "Aggregate Rating": 3.7,
      "City": "Louisville"
    },
    {
      "Name": "F-all (comida para todos)",
      "Average Cost": 42,
      "Cuisines": "Té, pizza, mexicano, panadería, comida rápida",
      "Aggregate Rating": 3.4,
      "City": "Louisville"
    },
    {
      "Name": "Pizza Domino",
      "Average Cost": 100,
      "Cuisines": "Postres, té, panadería, mediterráneo, mariscos",
      "Aggregate Rating": 2.4,
      "City": "Louisville"
    },
    {
      "Name": "Pez streat",
      "Average Cost": 73,
      "Cuisines": "China, mexicana, panadería, café",
      "Aggregate Rating": 4,
      "City": "Louisville"
    },
    {
      "Name": "Bistro con licor",
      "Average Cost": 91,
      "Cuisines": "Pizza, italiano, francés, comida rápida, café, mariscos",
      "Aggregate Rating": 4.6,
      "City": "Louisville"
    }
  ],
  "Accommodations in Louisville": [
    {
      "NAME": "¡Gran habitación con baño y balcón en BK!",
      "price": 1123,
      "room type": "Habitación privada",
      "house_rules": "No hay fiestas",
      "minimum nights": 1,
      "maximum occupancy": 2,
      "review rate number": 4,
      "city": "Louisville"
    },
    {
      "NAME": "Hermosa aparte de 1 dormitorio, Washington Heights",
      "price": 69,
      "room type": "Habitación privada",
      "house_rules": "No hay visitantes",
      "minimum nights": 7,
      "maximum occupancy": 2,
      "review rate number": 2,
      "city": "Louisville"
    },
    {
      "NAME": "Acogedor bdrm. Astoria, Queens. 10 minutos a Manhattan.",
      "price": 1177,
      "room type": "Habitación privada",
      "house_rules": "No hay fiestas y sin mascotas",
      "minimum nights": 2,
      "maximum occupancy": 1,
      "review rate number": 3,
      "city": "Louisville"
    },
    {
      "NAME": "Oasis artístico del Lower East Side",
      "price": 598,
      "room type": "Habitación privada",
      "house_rules": "No mascotas ni niños menores de 10",
      "minimum nights": 5,
      "maximum occupancy": 2,
      "review rate number": 5,
      "city": "Louisville"
    },
    {
      "NAME": "Amplia habitación y baño privado en Harlem Townhouse",
      "price": 805,
      "room type": "Habitación privada",
      "house_rules": "No hay visitantes ni fiestas y sin fumar",
      "minimum nights": 2,
      "maximum occupancy": 1,
      "review rate number": 2,
      "city": "Louisville"
    },
    {
      "NAME": "Elegante apto en el corazón de Greenwich Village",
      "price": 796,
      "room type": "Casa entera/apto",
      "house_rules": "No hay fiestas",
      "minimum nights": 30,
      "maximum occupancy": 6,
      "review rate number": 5,
      "city": "Louisville"
    },
    {
      "NAME": "Mi habitación/café y bagel",
      "price": 815,
      "room type": "Habitación privada",
      "house_rules": "No hay niños menores de 10 años y no visitantes",
      "minimum nights": 6,
      "maximum occupancy": 1,
      "review rate number": 4,
      "city": "Louisville"
    },
    {
      "NAME": "Amplio 2 Br Clinton Hill Apartment-Brooklyn, NY",
      "price": 823,
      "room type": "Casa entera/apto",
      "house_rules": "Sin mascotas",
      "minimum nights": 1,
      "maximum occupancy": 6,
      "review rate number": 2,
      "city": "Louisville"
    }
  ],
  "Flight from New Orleans to Louisville on 2022-03-12": "No hay vuelo de Nueva Orleans a Louisville el 2022-03-12.",
  "Self-driving from New Orleans to Louisville": "Conductor autónomo, desde Nueva Orleans hasta Louisville, Duración: 10 horas 14 minutos, distancia: 1,136 km, Costo: 56",
  "Taxi from New Orleans to Louisville": "Taxi, desde Nueva Orleans hasta Louisville, Duración: 10 horas 14 minutos, distancia: 1,136 km, Costo: 1136",
  "Flight from Louisville to New Orleans on 2022-03-14": "No hay vuelo de Louisville a Nueva Orleans el 2022-03-14.",
  "Self-driving from Louisville to New Orleans": "Conducción autónoma, desde Louisville hasta Nueva Orleans, Duración: 10 horas 15 minutos, distancia: 1,139 km, Costo: 56",
  "Taxi from Louisville to New Orleans": "Taxi, de Louisville a Nueva Orleans, Duración: 10 horas 15 minutos, distancia: 1,139 km, Costo: 1139"
}